id,name,latitude,longitude,type,dongCode
0,뱅뱅사거리,37.486653,127.033097,bus,118
1,래미안아파트.파이낸셜뉴스,37.491087,127.030987,bus,101
2,신분당선강남역,37.494993,127.029112,bus,101
3,지하철2호선강남역,37.500785,127.02637,bus,101
4,논현역,37.506367,127.023728,bus,108
5,신사역,37.512972,127.020607,bus,108
6,도심공항터미널(가상),37.5086936718,127.0590297949,bus,105
7,신사중학교,37.5229277357,127.0204991277,bus,107
8,신사중학교,37.5235638197,127.0210219949,bus,110
9,광림교회.현대고등학교,37.5253868122,127.0252663803,bus,107
10,광림교회.현대고등학교,37.5252779533,127.0244392928,bus,110
11,압구정역4번출구,37.5261538704,127.0282580859,bus,107
12,국민은행,37.5230982773,127.028118907,bus,107
13,신사동고개,37.5189474323,127.0258423035,bus,107
14,신사역8번출구.가로수길,37.5174397364,127.0221753116,bus,107
15,신사역6번출구,37.517422,127.019435,bus,107
16,신사역3번출구,37.5150099842,127.0201537084,bus,108
17,신사역1번출구,37.5167928115,127.0218266895,bus,108
18,신사동고개,37.5185545148,127.0260152561,bus,108
19,강남을지병원,37.5183863397,127.0284882026,bus,108
20,학동역,37.5147842255,127.0301678528,bus,108
21,논현동사거리.학동역,37.5138084599,127.0296697218,bus,108
22,영동시장,37.5118508617,127.0234688746,bus,108
23,영동시장,37.5112644378,127.0224777731,bus,108
24,논현동사거리.학동역,37.5135731512,127.0301492658,bus,108
25,논현동고개,37.5102565309,127.0323028097,bus,108
26,삼정호텔,37.5067856544,127.0316905107,bus,108
27,신논현역,37.5051353042,127.0260920374,bus,108
28,교보타워,37.5057773025,127.0241456343,bus,108
29,영동시장논현역,37.5102711129,127.0220463814,bus,108
30,언북중학교입구,37.5202978876,127.0308205822,bus,108
31,제일은행.호림아트센터앞,37.5215790063,127.0349369258,bus,108
32,영동119안전센터,37.5225557208,127.0381006504,bus,108
33,강남구청역,37.5184656847,127.040640587,bus,108
34,강남구청역,37.5169817759,127.0400469962,bus,108
35,세관앞,37.5157593644,127.0360665964,bus,108
36,서울세관,37.5170273453,127.0356282732,bus,108
37,서울세관,37.5173266488,127.0351668548,bus,108
38,학동역,37.515158129,127.0303750209,bus,108
39,강남을지병원,37.5185664886,127.0287812765,bus,108
40,세관앞,37.5155204401,127.0364986185,bus,108
41,강남구청역,37.5166564058,127.0402617629,bus,108
42,한국토지주택공사앞,37.5129970969,127.0426590953,bus,108
43,선정릉역1번출구.시니어플라자,37.5100916131,127.0427161853,bus,108
44,아크로힐스논현,37.5092228723,127.0396748981,bus,108
45,논현아이파크,37.5112799124,127.0363314004,bus,108
46,임피리얼팰리스호텔.펜트힐루논현,37.5143285583,127.0356009719,bus,108
47,펜트힐루논현.임피리얼팰리스호텔,37.5135465374,127.0351526376,bus,108
48,논현아이파크,37.5109078306,127.0360936724,bus,108
49,국민은행논현동지점,37.5085797976,127.0376591862,bus,108
50,언주역4번출구.차병원사거리,37.5077795338,127.0350085415,bus,108
51,언주역3번출구,37.5084783232,127.0335055792,bus,108
52,논현고개,37.5114460374,127.0321076269,bus,108
53,서울세관사거리,37.5153578591,127.0347813071,bus,108
54,현대아파트,37.5284384777,127.030580671,bus,110
55,현대아파트,37.5282986659,127.0311225746,bus,107
56,고속철도수서역,37.485048099,127.1044467495,bus,115
57,신사동교회,37.5206998289,127.030625028,bus,107
58,도산공원.호림아트센터앞,37.5221138227,127.0333295289,bus,107
59,신구중학교,37.5267319814,127.0332342816,bus,107
60,압구정중고등학교.현대아파트,37.5300875448,127.0336815692,bus,110
61,도산공원사거리,37.5220070732,127.0347855249,bus,107
62,압구정파출소,37.529043209,127.0365866714,bus,110
63,압구정파출소,37.5287469102,127.0360581401,bus,107
64,한양아파트.압구정로데오역,37.5282700029,127.0395789565,bus,110
65,한양아파트.압구정로데오역,37.527929495,127.0392574486,bus,107
66,일지아트홀,37.5249935982,127.0396100358,bus,107
67,씨네시티앞,37.5230081747,127.0377829678,bus,107
68,도산공원,37.5228130189,127.0335300905,bus,107
69,신구중학교,37.5256460711,127.0335404098,bus,107
70,성수대교남단.현대아파트,37.5299198087,127.0341408692,bus,110
71,청담초등학교,37.5268028293,127.045122136,bus,104
72,프리마호텔,37.5246709071,127.0494314367,bus,104
73,프리마호텔,37.5244285458,127.0514609787,bus,104
74,영동교입구.청담자이아파트,37.5227837764,127.0560022536,bus,104
75,영동교입구,37.5223335305,127.0553581779,bus,104
76,청담역.경기고교,37.5207652149,127.0562111719,bus,104
77,우리은행청담지점.청담삼익아파트,37.5210303354,127.056845893,bus,104
78,청담역.경기고교,37.5200739332,127.0565014019,bus,104
79,진흥아파트,37.5192911033,127.0520898501,bus,104
80,청담천주교회,37.5204992022,127.0495735347,bus,104
81,청담2치안센터,37.523386538,127.0479813073,bus,104
82,강남구청.강남세무서,37.5184926885,127.0471567452,bus,104
83,청담동래미안아파트,37.5176296005,127.0428054051,bus,104
84,강남구청역,37.5183006545,127.0410138235,bus,104
85,프라마호텔,37.5248729196,127.05115694,bus,104
86,농협앞,37.5240778005,127.0443867144,bus,104
87,일지아트홀.압구정동노인복지센터,37.5243159636,127.0396345679,bus,104
88,청담초등학교앞,37.5264613268,127.045085725,bus,104
89,청담2치안센터,37.5229351646,127.0477909496,bus,104
90,청담동성당앞,37.5202583193,127.0492045241,bus,104
91,차병원차움,37.5235573811,127.0443044632,bus,104
92,진흥아파트청담역,37.5189828118,127.0523509664,bus,105
93,청담역.경기고교,37.5197540224,127.0565441506,bus,105
94,청담역.경기고교,37.5191874549,127.0579408838,bus,105
95,봉은사.삼성1파출소앞,37.5149677625,127.0594353837,bus,105
96,봉은사.코엑스북문,37.5141416642,127.0590150429,bus,105
97,봉은사.코엑스북문,37.5135467163,127.057639012,bus,105
98,봉은사역3번출구.삼성1파출소,37.5151079658,127.0601628839,bus,105
99,봉은사역5번출구.광동한방병원,37.5143904484,127.0623659475,bus,105
100,노블발렌티웨딩홀,37.5148306999,127.0647588832,bus,105
101,서울의료원강남분원,37.512568,127.065604,bus,105
102,강남경찰서면허시험장,37.5099462683,127.0657996068,bus,105
103,삼성역7번출구,37.510365746,127.0626294125,bus,105
104,무역센터,37.5111539189,127.0615406066,bus,105
105,무역센터,37.50929953,127.0625607319,bus,105
106,강남보건소.강남구립국제교육원,37.5153159325,127.0418085871,bus,108
107,한국무역센터.삼성역,37.5086670057,127.0617005963,bus,105
108,포스코사거리,37.5078226593,127.0563179719,bus,105
109,한별구립어린이집,37.5104103876,127.0549014268,bus,105
110,센트럴아이파크.강남구도시관리공단,37.5157795361,127.0520466841,bus,105
111,삼성동서광아파트,37.5172385944,127.0426083399,bus,105
112,강남구청.강남세무서,37.5182012324,127.0477736533,bus,105
113,청담역,37.5176356522,127.0506188246,bus,105
114,센트럴아이파크.강남구도시관리공단,37.5153174045,127.0518696115,bus,105
115,한별구립어린이집,37.5102276026,127.0546026643,bus,105
116,삼성중앙역.플래티넘아파트,37.512663758,127.0515286905,bus,105
117,삼성중앙역.플래티넘아파트,37.5123779785,127.0518271312,bus,105
118,삼성2문화센터,37.5110917636,127.0461375271,bus,105
119,라마다서울호텔앞,37.5108104729,127.046512905,bus,105
120,선릉역.선정릉정문,37.5058067497,127.0485231624,bus,105
121,선정릉역.무형문화재전수회관,37.5096985003,127.044202384,bus,105
122,한국토지주택공사앞,37.5128095277,127.0430458617,bus,105
123,포스코건너편,37.5066831874,127.0554269279,bus,105
124,선릉역,37.505143,127.050205,bus,105
125,도곡역2번출구.동부센트레빌,37.4915855937,127.0565229085,bus,106
126,중대부고,37.4918872375,127.0550936879,bus,106
127,단대부고.대치아이파크아파트,37.4946749575,127.0537770662,bus,106
128,한티역3번출구.서울강남고용노동지청,37.4964463596,127.0541425059,bus,106
129,삼성아파트입구,37.4981982,127.05956007,bus,106
130,농협대치지점,37.4979369667,127.0611545494,bus,106
131,대치SK.VIEW아파트.서울교회,37.4962613463,127.0620556876,bus,106
132,대치역1번출구,37.4938592964,127.0614984174,bus,106
133,래미안대치팰리스,37.4925595861,127.0585796232,bus,106
134,도곡역3번출구,37.4911818874,127.0565474837,bus,106
135,대치동우성아파트,37.4925770923,127.0596110202,bus,106
136,대치역8번출구,37.4936775701,127.0620595908,bus,106
137,대치역7번출구.선경아파트,37.492458,127.06408,bus,106
138,그랑프리백화점,37.4902578609,127.0557033053,bus,106
139,은마아파트,37.4955959062,127.0628615031,bus,106
140,은마파출소,37.4980989737,127.0615233829,bus,106
141,은마아파트,37.4994452048,127.0632605821,bus,106
142,대치동은마아파트,37.4984286024,127.0683966854,bus,106
143,은마아파트,37.4957666584,127.0669737834,bus,106
144,대치동미도아파트,37.4956049426,127.0677076244,bus,106
145,대치역6번출구.강남구민회관,37.492785,127.064278,bus,106
146,쌍용아파트,37.4981062966,127.0694459465,bus,106
147,선릉역,37.505447,127.051217,bus,105
148,삼성역,37.5074914751,127.0643170582,bus,106
149,강남경찰서.강남운전면허시험장,37.5097831979,127.0671559796,bus,106
150,삼성역,37.507599584,127.0634216617,bus,106
151,휘문고.대치2동주민센터,37.5035340192,127.0656234398,bus,106
152,래미안하이스턴.대치순복음교회,37.4999449909,127.0638660962,bus,106
153,대치현대아파트,37.5010563167,127.0599174839,bus,106
154,휘문중고등학교,37.5039658555,127.0618980584,bus,106
155,휘문중고등학교,37.5040741974,127.0614966158,bus,106
156,대치사거리,37.5035402301,127.058517043,bus,106
157,한국무역센터.삼성역,37.5081065399,127.0616639386,bus,106
158,한티역,37.4981160997,127.0521475206,bus,106
159,도성초등학교,37.5001223629,127.0512135652,bus,106
160,도성초교사거리,37.5006961294,127.0517545871,bus,106
161,영동농협풍림아이원아파트,37.5021979661,127.0563510713,bus,106
162,영동농협풍림아이원아파트,37.502541078,127.0567856535,bus,106
163,도성초교사거리,37.5009078795,127.0517750918,bus,106
164,진선여자중고등학교,37.5027442041,127.049965539,bus,106
165,선릉역,37.5047611955,127.050462265,bus,106
166,포스코빌딩,37.5060493833,127.0548888307,bus,106
167,대치사거리,37.5034252657,127.0582125979,bus,106
168,대치동현대아파트,37.501646012,127.0591748622,bus,106
169,은마아파트입구사거리,37.4987273789,127.0600675492,bus,106
170,도곡초등학교,37.4976896078,127.0566485239,bus,106
171,한티역2번출구.서울강남고용노동지청,37.4967735576,127.0539289896,bus,106
172,신논현역,37.5046361677,127.0257548004,bus,101
173,삼정호텔앞,37.5062420273,127.0311108359,bus,101
174,차병원,37.50553234,127.0344860558,bus,101
175,차병원,37.5060900826,127.034620914,bus,101
176,언주역5번출구.차병원사거리,37.5073948067,127.0348624465,bus,101
177,시티프라디움더강남.라움아트센터,37.5079882917,127.0388431877,bus,101
178,라움아트센터.시티프라디움더강남,37.5075256865,127.0398643568,bus,101
179,아크로힐스논현,37.5091077534,127.0406479555,bus,101
180,선정릉역4번출구.시니어플라자,37.5098268696,127.0430848706,bus,101
181,선정릉역.무형문화재전수회관,37.5092335728,127.0440935191,bus,101
182,선릉역,37.5058843866,127.0481759639,bus,101
183,서울상록회관.한국기술센터,37.503232,127.044057,bus,101
184,KT강남지사,37.5047549674,127.0419791463,bus,101
185,KT강남지사,37.5047578524,127.0414645036,bus,101
186,아가방빌딩.하나은행,37.5015409767,127.0386328674,bus,101
187,역삼역.GS타워,37.5014045842,127.0368321879,bus,101
188,역삼역,37.5016570588,127.036296199,bus,101
189,역삼역,37.5004418394,127.0350786317,bus,101
190,강남역12번출구,37.4988294041,127.0298390986,bus,101
191,강남역,37.4999348463,127.0269678944,bus,101
192,신논현역.구교보타워사거리,37.502359976,127.0257902121,bus,101
193,강남역.역삼세무서,37.4981357274,127.0291477897,bus,101
194,역삼역.포스코타워역삼,37.4995717499,127.0337900061,bus,101
195,영동중앙교회,37.4981539451,127.0379751499,bus,101
196,강남보건소.강남구립국제교육원,37.5155194988,127.0420406067,bus,105
197,역삼럭키아파트.역삼월드메르디앙아파트,37.491838771,127.0387194718,bus,101
198,역삼초등학교,37.494097481,127.034025034,bus,101
199,역삼초등학교,37.4943308436,127.0341054359,bus,101
200,뱅뱅사거리.역삼동,37.4902625053,127.033598088,bus,101
201,역삼초등학교,37.492195273,127.0306529668,bus,101
202,역삼2동주민센터.대림역삼아파트,37.496245263,127.0459926766,bus,101
203,래미안.그레이튼.아파트,37.4959516503,127.0456136271,bus,101
204,역삼자이아파트,37.4998041369,127.0442567199,bus,101
205,역삼동성당.역삼자이아파트,37.4998793449,127.0437950854,bus,101
206,역삼동개나리아파트,37.4993812973,127.0477691476,bus,101
207,역삼동개나리아파트,37.4994508516,127.0473484575,bus,101
208,총지사,37.4961932806,127.0402858339,bus,101
209,총지사,37.4966904984,127.0408425358,bus,101
210,영동중앙교회,37.4977185179,127.03857548,bus,101
211,한서병원,37.501137,127.038818,bus,101
212,한국자산신탁.센터필드,37.502783,127.044247,bus,101
213,진선여자중고등학교,37.5022648571,127.0498724735,bus,101
214,역삼e-편한세상아파트,37.4992545645,127.0512977977,bus,101
215,한티역,37.4972023372,127.0522475418,bus,101
216,한티역7번출구,37.4958925195,127.0513667479,bus,101
217,역삼중학교.강남세브란스병원,37.49471181,127.0476983171,bus,101
218,도곡1차아이파크.역삼청소년수련관,37.4928082151,127.0417858592,bus,101
219,총지사,37.4949426926,127.0398633221,bus,101
220,도곡1동주민센터.역삼럭키아파트,37.4915800523,127.0390292015,bus,118
221,도곡1차아이파크.도곡중학교,37.4926349836,127.0424021052,bus,118
222,매봉삼성아파트SK리더스뷰,37.4881449495,127.0489606775,bus,118
223,매봉역양재최의원,37.4861642605,127.0445616798,bus,118
224,양재역말죽거리.강남베드로병원,37.4852510407,127.0379686178,bus,118
225,뱅뱅사거리.구영동중학교,37.4877243166,127.032807632,bus,118
226,고속철도수서역,37.4848498526,127.1036016062,bus,112
227,뱅뱅사거리뱅뱅프라자,37.4897472768,127.0328763684,bus,118
228,매봉역,37.4859190024,127.0449776694,bus,118
229,도곡개포한신아파트,37.487972,127.04938,bus,118
230,도곡동개포한신아파트,37.487046846,127.0502898045,bus,118
231,우성캐릭터빌아파트,37.4870096821,127.0508009097,bus,118
232,군인공제회관,37.4891681578,127.0521107665,bus,118
233,선정릉역라마다서울호텔,37.5104190338,127.0451213206,bus,105
234,숙명여고,37.4897356961,127.0524662508,bus,118
235,도곡렉슬아파트.강남세브란스병원,37.4944367753,127.0481867043,bus,118
236,한티역6번출구,37.495722,127.05194,bus,118
237,도곡렉슬아파트정문,37.4947508051,127.053435578,bus,118
238,중대부고앞,37.492538,127.054525,bus,118
239,구룡중학교앞,37.485803,127.057243,bus,103
240,개포고등학교앞,37.484231,127.058605,bus,103
241,개포1단지,37.482588,127.06061,bus,103
242,개포파크빌리지,37.4767507104,127.0583603693,bus,103
243,하나은행사거리,37.4808563189,127.0542194513,bus,103
244,현대아파트경남아파트,37.4827274791,127.0531952093,bus,103
245,우성3차아파트,37.4831736073,127.0568897219,bus,103
246,개일초등학교앞,37.4860067851,127.0573427938,bus,103
247,개포고등학교,37.484374823,127.0586456019,bus,103
248,개포1단지연금매장,37.4826779173,127.0606773703,bus,103
249,래미안블레스티지아파트,37.4802460794,127.0636367512,bus,103
250,개포도서관,37.4837015782,127.0640806819,bus,103
251,수도전기공고후문,37.484782057,127.0656239958,bus,103
252,수도전기공고후문,37.485273,127.065984,bus,103
253,디에이치아너힐즈,37.484500034,127.0682003092,bus,103
254,주공4단지,37.483723417,127.069283298,bus,103
255,경기여고,37.48653,127.067244,bus,103
256,개포동역.개포시장,37.4884889232,127.0661225469,bus,103
257,개포주공5단지경기여고,37.4867075784,127.0674711689,bus,103
258,개포동역.개포시장,37.4884344158,127.0664157055,bus,103
259,개포시장.개포5단지상가,37.489554,127.068378,bus,103
260,개포시장.개포5단지상가,37.4893130095,127.0684494389,bus,103
261,양전초등학교,37.490243,127.070593,bus,103
262,개포6단지앞,37.4899488254,127.0705986589,bus,103
263,디에이치자이개포아파트,37.4922272031,127.0757916225,bus,114
264,개원중학교,37.492262,127.072156,bus,103
265,개포주공7단지앞,37.488952997,127.0737267782,bus,103
266,연금매점,37.4882473096,127.0747982136,bus,114
267,현대아파트,37.4822653767,127.0528285196,bus,103
268,개포래미안포레스트,37.4803683184,127.0540443371,bus,103
269,능인선원앞,37.4724246532,127.0522540318,bus,103
270,구룡산입구,37.4774450135,127.0620455446,bus,103
271,능인선원앞,37.4717704673,127.0522140057,bus,103
272,구룡초등학교,37.480753935,127.0530683183,bus,103
273,광수빌딩,37.4790607546,127.0493324033,bus,103
274,국민은행그린공원,37.4787698164,127.0468254619,bus,103
275,포이사거리삼호물산,37.4784379636,127.0451416579,bus,103
276,포이사거리삼호물산,37.4782848028,127.0451927037,bus,103
277,국민은행그린공원,37.4785641982,127.0472425588,bus,103
278,광수빌딩,37.4788507294,127.0494939548,bus,103
279,개포4동주민센터개포지구대,37.4794452914,127.0512070611,bus,103
280,구룡초등학교,37.4804474803,127.0529957325,bus,103
281,수서삼성아파트앞,37.4843993977,127.0909893034,bus,115
282,일원본동주민센터,37.4834885153,127.0847497652,bus,114
283,푸른마을아파트앞,37.4829129209,127.0805834065,bus,114
284,상록수아파트앞,37.4828046299,127.0821222482,bus,114
285,일원본동주민센터,37.4833831017,127.0859753943,bus,114
286,수서119.안전센터앞,37.4843205406,127.0937686591,bus,115
287,삼성서울병원정문,37.4865445092,127.0829902821,bus,114
288,삼성서울병원정문건너편,37.4870251768,127.0824491516,bus,114
289,일원역,37.4851178573,127.083279317,bus,114
290,삼성서울병원후문,37.4901997236,127.0875200547,bus,114
291,글래드라이브강남호텔,37.5078051738,127.036340012,bus,101
292,을지병원포포인츠강남&호텔선샤인,37.5201296971,127.0288547701,bus,107
293,삼성서울병원사거리,37.4891453359,127.0826482499,bus,114
294,강남한양수자인아파트,37.4782539161,127.1138013671,bus,112
295,강남한양수자인아파트,37.477818,127.113478,bus,112
296,대치아파트,37.4924140029,127.0724873208,bus,103
297,대청역,37.4932344092,127.0788924716,bus,114
298,마루공원,37.4946712918,127.0833781371,bus,114
299,대청초등학교,37.493870617,127.0865721019,bus,114
300,일원1동주민센터,37.4919722007,127.0875119448,bus,114
301,수서역현대벤쳐빌,37.4876513072,127.1022257643,bus,115
302,수서역,37.4883076816,127.1007452609,bus,115
303,수서역KT수서지점,37.4884191226,127.1000329815,bus,115
304,수서역KT수서지점,37.4871885183,127.1007358421,bus,115
305,세곡문화복지관,37.4691406041,127.1081157396,bus,113
306,궁마을,37.4853495847,127.0972460057,bus,115
307,궁마을,37.4852808034,127.0976066393,bus,115
308,수서역,37.4868771167,127.1019666899,bus,115
309,수서역5번출구,37.4869636034,127.1024565504,bus,115
310,수서역.로즈데일빌딩,37.4873984409,127.1028677279,bus,115
311,세곡문화복지회관,37.4689447525,127.1078609297,bus,113
312,은곡마을.LH이편한세상,37.4655279204,127.1026344423,bus,111
313,강남신동아파밀리에1단지,37.4651420524,127.1002962266,bus,111
314,대왕초등학교,37.4646708281,127.1068384861,bus,111
315,세곡동사거리,37.4635777855,127.1078294794,bus,111
316,세곡동,37.4646295101,127.1096940165,bus,111
317,광연자동차학원앞,37.4656909003,127.1163609853,bus,111
318,삼일자동차학원.강남자동차검사소,37.4679153957,127.1211804938,bus,113
319,삼일자동차학원.강남자동차검사소,37.4679987199,127.1207679842,bus,113
320,광연자동차학원앞,37.4670229687,127.1188445352,bus,111
321,세곡동,37.4650595561,127.1095491772,bus,111
322,세곡동사거리,37.4656874635,127.1086114219,bus,111
323,방죽마을,37.4723873002,127.1072569387,bus,113
324,래미안포레아파트,37.4744402381,127.1067201656,bus,113
325,쟁골마을,37.4820155276,127.1051606243,bus,112
326,쟁골마을,37.4826545844,127.1043990475,bus,112
327,래미안포레아파트,37.4751251698,127.1061715911,bus,112
328,방죽마을,37.4722247345,127.106920465,bus,113
329,압구정역3번출구,37.5260014748,127.0287139855,bus,107
330,국민은행압구정지점,37.5235045824,127.0284969369,bus,107
331,언주역2번출구.차병원사거리,37.5079530218,127.0333616903,bus,108
332,영동고교앞,37.5215035461,127.0398932882,bus,104
333,개포우성6차아파트,37.4756132506,127.0578352239,bus,103
334,은곡마을진입로,37.465765644,127.0985783615,bus,111
335,탄천교,37.501358,127.068123,bus,106
336,우성아파트,37.5010463418,127.0683334735,bus,106
337,세곡푸르지오,37.4650999852,127.0949599244,bus,111
338,삼성역,37.5072431315,127.0636517443,bus,106
339,세곡푸르지오,37.465062,127.096478,bus,111
340,세곡2지구3.4단지,37.4767574013,127.1098002318,bus,112
341,개포우성아파트,37.4765644257,127.0578638641,bus,103
342,래미안강남힐즈,37.4723483229,127.0973806587,bus,112
343,세곡중학교.세명초등학교,37.4703937932,127.0915600859,bus,112
344,세곡중학교.세명초등학교,37.4703214145,127.0923754774,bus,112
345,일원동한솔아파트,37.4824720603,127.0795788268,bus,114
346,시립수서청소년수련관,37.483863,127.089107,bus,115
347,포스코사거리,37.5078337216,127.0557931346,bus,105
348,대왕초등학교,37.465113844,127.106685919,bus,111
349,그랑프리백화점,37.4900100449,127.0555062053,bus,118
350,개포중학교,37.480169,127.063512,bus,103
351,구룡마을,37.478975,127.064041,bus,103
352,개포주공1단지아파트,37.4783919519,127.0567996147,bus,103
353,영희초등학교,37.4911914327,127.0804871277,bus,114
354,못골마을.LH강남아이파크,37.4734122417,127.1016355065,bus,112
355,못골마을,37.4731023528,127.1018882443,bus,112
356,태화기독교.사회복지관,37.4845282141,127.0933527923,bus,115
357,개포도서관,37.483553,127.063564,bus,103
358,도곡교회.인바디빌딩,37.4744335616,127.0554585033,bus,103
359,강남세브란스병원,37.4933990531,127.0473231493,bus,118
360,도곡교회.인바디빌딩.건너,37.4744248965,127.0562402553,bus,103
361,래미안강남힐즈,37.4724442723,127.0953815657,bus,112
362,도곡중학교.강남세브란스병원,37.4936020408,127.0467216289,bus,118
363,강남경찰서.강남운전면허시험장,37.5095036021,127.0660087348,bus,106
364,수도공고앞,37.4871674571,127.0619599602,bus,103
365,개포4단지5단지,37.4863952729,127.0685575032,bus,103
366,개포4단지6단지,37.4868209572,127.0723122938,bus,103
367,개포4단지7단지,37.4878420538,127.0735368375,bus,103
368,개포동역,37.488967804,127.0654139271,bus,103
369,세곡푸르지오,37.4675204419,127.0937284528,bus,111
370,경남아파트,37.4889759836,127.0413200765,bus,118
371,세곡푸르지오,37.4679228091,127.0938352209,bus,111
372,구룡역,37.4860703372,127.0593762963,bus,103
373,구룡역,37.4861696665,127.058961369,bus,103
374,럭키아파트,37.4915406247,127.0410365057,bus,118
375,래미안개포루체하임아파트,37.4893482039,127.0813369363,bus,114
376,수도공고,37.4875628407,127.0623425063,bus,103
377,개포4단지6단지,37.4869760079,127.0722129312,bus,103
378,개포4단지5단지,37.486464681,127.0683416746,bus,103
379,학여울역,37.4972478422,127.0719615667,bus,106
380,학여울역,37.4966786872,127.0713978002,bus,106
381,도곡한신아파트,37.4868758329,127.0411576487,bus,118
382,현대1차아파트,37.482117469,127.0550785982,bus,103
383,영동고등학교현대아파트,37.5213549869,127.0395300499,bus,108
384,개포4단지7단지,37.4875450415,127.0729688713,bus,103
385,총회회관.휘문고입구,37.5044376369,127.065960162,bus,106
386,예림당아트홀.신한은행전산센터,37.4980860271,127.0441265479,bus,101
387,새마을운동중앙회,37.5019092536,127.0673638246,bus,106
388,총지사,37.4948581044,127.0395194722,bus,101
389,신한은행데이터센터,37.4980790086,127.0436142072,bus,101
390,포스코사거리,37.5073192617,127.0575278976,bus,105
391,우성3차아파트,37.4837132774,127.0570801003,bus,103
392,우성6차아파트,37.4769804841,127.0549930057,bus,103
393,포이초교,37.4752733312,127.0525575599,bus,103
394,국악중고교,37.4755125128,127.0507196343,bus,103
395,풍양빌딩,37.4772532862,127.0489716615,bus,103
396,코원에너지서비스,37.4980697598,127.0760972384,bus,106
397,코원에너지서비스,37.4984896319,127.076162131,bus,106
398,현대1차우성아파트,37.4818263684,127.055172236,bus,103
399,포스코사거리,37.5070845749,127.0583443873,bus,106
400,국민은행그린공원,37.478407,127.047757,bus,103
401,삼익아파트앞,37.4900562415,127.0417922422,bus,118
402,래미안포레아파트,37.4756585108,127.1072950785,bus,112
403,래미안포레아파트,37.4760978962,127.1076846516,bus,112
404,세곡2지구3.4단지,37.476668,127.110393,bus,112
405,도곡한신아파트,37.4865461779,127.0414335753,bus,118
406,강남더샵라르고오피스텔,37.4752274507,127.1048166174,bus,112
407,서울의료원후문,37.512854221,127.0670297734,bus,105
408,구룡마을,37.4771363685,127.0615010562,bus,103
409,학동역,37.5153474836,127.0298909242,bus,108
410,은곡마을.강남신동아파밀리에,37.465026,127.102457,bus,111
411,강남현대힐스테이트에코,37.4750109081,127.1049627778,bus,112
412,대왕초등학교,37.4647336817,127.1060868044,bus,111
413,수서역5번출구.이마트앞,37.4867890817,127.1026711271,bus,115
414,달터공원,37.4765501377,127.0496563833,bus,103
415,일원역,37.4842740914,127.0837487838,bus,114
416,삼성서울병원정문,37.486220916,127.0831278825,bus,114
417,국민은행,37.4783549106,127.0478168168,bus,103
418,삼성의료원,37.4880871291,127.0843625606,bus,114
419,한아름아파트.사이룩스오피스텔,37.4882883158,127.1043695699,bus,115
420,암센터후문.장례식장,37.4896761036,127.0867278996,bus,114
421,암센터정문,37.4887280795,127.0877105812,bus,114
422,신분당선.강남역4번출구,37.4947408197,127.0294354214,bus,101
423,영동2교,37.4824106082,127.0436209282,bus,118
424,강남교육청,37.5114525879,127.0474431396,bus,105
425,래미안루체하임.일원동맛의거리,37.4895038011,127.0816026028,bus,114
426,신논현역,37.5019598458,127.0259766968,bus,101
427,영희초등학교,37.4913516516,127.080747403,bus,114
428,개포동역,37.488685801,127.0653367838,bus,103
429,강남우체국,37.4933177303,127.0782615093,bus,114
430,도성초등학교앞,37.5004642646,127.0503202915,bus,101
431,일원2동주민센터.수서경찰서,37.4923887632,127.0753812691,bus,114
432,LH이-편한세상,37.4677254056,127.1018876756,bus,111
433,신논현역,37.5010162887,127.0264400922,bus,101
434,동영문화센터,37.4979146187,127.0446557472,bus,101
435,도곡2동주민센터대치중학교,37.4842517535,127.0455126584,bus,118
436,도곡2동주민센터대치중학교,37.4844032382,127.0452549325,bus,118
437,대청역,37.4932186422,127.0795608241,bus,114
438,영동2교,37.4827701733,127.0435555535,bus,118
439,강남세브란스병원,37.4941024226,127.0460354686,bus,101
440,삼성역,37.5073325885,127.0644550131,bus,106
441,매봉역입구,37.485055,127.046452,bus,118
442,역삼청소년수련관.도곡1차아이파크,37.4931043457,127.0427156329,bus,101
443,엠네트음악방송국,37.5240522735,127.0440702137,bus,104
444,삼성역,37.509754783,127.0631256245,bus,105
445,코엑스도심공항,37.5095939553,127.0594290768,bus,105
446,삼성역그랜드인터컨티넨탈,37.5084898455,127.0610138468,bus,105
447,포스코사거리,37.5066283272,127.0551984022,bus,105
448,역삼역,37.4998687965,127.0348815674,bus,101
449,역삼역,37.5003770293,127.0348444801,bus,101
450,강남역,37.4983670689,127.0301126142,bus,101
451,강남역12번출구,37.4987123716,127.0293968328,bus,101
452,영희초등학교정문,37.4917702392,127.0826658438,bus,114
453,봉은사역코엑스인터컨티넨탈,37.5135748897,127.0570691895,bus,105
454,코엑스동문,37.5122036814,127.0608830771,bus,105
455,일원지구대,37.4925024781,127.0844466897,bus,114
456,대청초교삼거리,37.4933069756,127.0862704324,bus,114
457,대청초교삼거리,37.4931669875,127.0863914747,bus,114
458,도곡동,37.4878492793,127.0492205758,bus,118
459,타워펠리스,37.4897386698,127.053238036,bus,118
460,대치동,37.493608599,127.0618634984,bus,106
461,학여울역,37.4958414376,127.0685662305,bus,106
462,개포동,37.4888592582,127.0737651349,bus,103
463,학여울역,37.4958593062,127.0672656518,bus,106
464,대치동,37.4940429277,127.0618695113,bus,106
465,타워펠리스,37.4906638465,127.0544289663,bus,118
466,양재역,37.484871562,127.035433202,bus,118
467,신사동,37.5169031397,127.0195788884,bus,107
468,미성아파트,37.5229772839,127.0205692856,bus,107
469,리베라호텔,37.5228274622,127.0550813599,bus,104
470,압구정역,37.5284087616,127.0305025892,bus,110
471,노블발렌티웨딩홀,37.5151343457,127.0648043953,bus,105
472,양재전화국,37.4856393401,127.0408987126,bus,118
473,대치2동주민센터.래미안하이스턴,37.5018655867,127.0665041929,bus,106
474,봉은사역.삼성래미안아파트,37.5147131775,127.0621094253,bus,105
475,강남구민체육관,37.4760843401,127.0537967405,bus,103
476,LPG가스충전소,37.4906376166,127.0358079831,bus,118
477,수서역,37.4886789869,127.0997013176,bus,115
478,일원1동주민센터,37.491739445,127.0878769507,bus,114
479,일원지구대,37.4925603569,127.0841549821,bus,114
480,동영문화센터,37.4982163309,127.0450698684,bus,101
481,영희초등학교,37.4918172767,127.0824080525,bus,114
482,삼성서울병원정문건너편,37.4864455837,127.0827108625,bus,114
483,일원역,37.4839651936,127.0834928843,bus,114
484,탄천교(가상),37.5015363095,127.0732324447,bus,106
485,탄천교(가상),37.5013185664,127.0727085631,bus,106
486,강남더드림병원.도성초등학교,37.5010137322,127.050799086,bus,106
487,대왕파출소,37.465202563,127.1077413737,bus,111
488,언주역삼정&베스트웨스턴강남,37.5061313556,127.0310397258,bus,101
489,강남신동아파밀리에2단지,37.4648440875,127.1017052854,bus,111
490,한신휴플러스6단지,37.4689755358,127.1039561716,bus,113
491,강남역,37.5002114782,127.0267345422,bus,101
492,르메르디앙호텔.노보텔,37.5053577485,127.0278320298,bus,101
493,삼정호텔,37.5064023297,127.0313097165,bus,101
494,선릉과정릉.라마다서울호텔,37.510575802,127.0454157102,bus,105
495,봉은사.롯데면세점,37.5137273488,127.0583371175,bus,105
496,코엑스.에스엠타운,37.5104504405,127.0619369794,bus,105
497,삼성역,37.5101888247,127.0626911066,bus,105
498,SM엔터테인먼트,37.518545662,127.0507759684,bus,105
499,한류스타거리,37.5272518736,127.0433500025,bus,110
500,압구정로데오,37.5284260581,127.0388063405,bus,110
501,강남관광정보센터,37.5266264851,127.0270046208,bus,110
502,중동고등학교,37.4928867094,127.0800445003,bus,114
503,역삼아르누보&조선팰리스강남,37.5032714481,127.0426789882,bus,101
504,가로수길,37.524538102,127.0230095118,bus,110
505,영희초등학교후문,37.4914519224,127.0803833657,bus,114
506,양재역4번출구,37.4850648693,127.0368399956,bus,118
507,삼성역7번출구,37.50952419,127.0629070491,bus,105
508,삼성역7번출구,37.5102100179,127.0625644423,bus,105
509,도곡중학교.강남세브란스병원,37.493403627,127.0448374004,bus,118
510,역삼2동주민센터.래미안그레이튼아파트,37.4946716521,127.0467177715,bus,101
511,신논현역르메르디앙서울호텔,37.5049413383,127.0271088192,bus,101
512,노보텔앰배서더호텔,37.5055113436,127.0287672149,bus,101
513,방죽마을입구,37.4709638304,127.1063540665,bus,113
514,방죽마을입구,37.471048981,127.1060751168,bus,113
515,한신휴플러스6단지,37.4692948587,127.1042243925,bus,113
516,LH이-편한세상,37.4676939732,127.1016065566,bus,111
517,은곡마을,37.4668026969,127.0975634855,bus,111
518,상업지역,37.4667819238,127.1009142069,bus,111
519,강남신동아파밀리에,37.465707319,127.1014802722,bus,111
520,세종고등학교,37.4878639673,127.1029015023,bus,115
521,세곡푸르지오,37.466778794,127.0947792174,bus,111
522,세곡푸르지오,37.4666511475,127.094295055,bus,111
523,상업지역,37.4673373562,127.0999904448,bus,111
524,은곡마을,37.467452315,127.0968576247,bus,111
525,강남스포츠문화센터,37.4886145019,127.1052090729,bus,115
526,삼정호텔,37.5062370429,127.0310907911,bus,101
527,리엔파크3단지,37.4630299812,127.103725133,bus,111
528,포스코사거리,37.5086421913,127.0554068847,bus,105
529,서울요양원.강남구립행복요양병원,37.4607252367,127.1033941267,bus,111
530,LH이편한세상,37.4665036794,127.1017345829,bus,111
531,강남데시앙포레정문,37.4812748441,127.089179735,bus,115
532,강남데시앙포레상가앞,37.4813620057,127.0918528925,bus,115
533,강남더샵포레스트아파트,37.482083419,127.0946082689,bus,115
534,강남신동아파밀리에1단지,37.4633952819,127.1013912358,bus,111
535,강남더샵포레스트아파트,37.4820890986,127.0942667912,bus,115
536,강남데시앙포레상가앞,37.4814270894,127.0927451217,bus,115
537,강남데시앙포레정문,37.4818476385,127.0895874825,bus,115
538,수서교회.수서동성당앞,37.48349376,127.0944687015,bus,115
539,수서교회.수서동성당앞,37.4834908013,127.0947875737,bus,115
540,삼성서울병원사거리,37.4888585981,127.0829148138,bus,114
541,동호대교(가상),37.5311526541,127.0241641902,bus,110
542,동호대교(가상),37.5317424527,127.0237344456,bus,110
543,성수대교(가상),37.5325676597,127.0344578191,bus,110
544,성수대교(가상),37.5330951565,127.0345543786,bus,110
545,영동대교(가상),37.5259608708,127.0551805659,bus,104
546,영동대교(가상),37.5266245541,127.0556204482,bus,104
547,성수대교남단(가상),37.5336278222,127.0308815117,bus,110
548,강남신동아파밀리에2단지,37.4645854452,127.1014528814,bus,111
549,일원주유소.삼성서울병원후문,37.4906537597,127.0876822994,bus,114
550,리엔파크4단지.강남데시앙파크,37.4612716392,127.1019761885,bus,111
0,어반테일러 앞,37.50828,127.02229,taxi,107
1,가로수길 영동빌딩 (올리브영 가로수길 중앙점 앞),37.518136,127.022959,taxi,107
2,임페리얼팰리스호텔 앞,37.5137,127.03552,taxi,108
3,한국건설기술인협회별관 좌측(상아아파트 건너),37.51688,127.05136,taxi,105
4,삼원가든 앞,37.525,127.03311,taxi,107
5,논현삼계탕 앞(서울세관 건너),37.51807,127.03547,taxi,108
6,언고신관빌딩(삼성동롯데아파트 101동 건너),37.51868,127.04885,taxi,104
7,코엑스 아트홀 앞,37.51303,127.06058,taxi,105
8,빅토리아빌딩 앞(선릉역 5번출구),37.50374,127.04776,taxi,101
9,동경빌딩 앞(올레서비스센터 강남점),37.49882,127.03057,taxi,101
10,아카데미스위트 빌딩 앞(타워팰리스2차 우측),37.4896,127.05114,taxi,118
11,래미안도곡카운티아파트 101동 앞,37.49484,127.04885,taxi,118
12,현정빌딩 앞(선릉역 4번출구),37.50408,127.04807,taxi,101
13,고용노동부 서울강남지청 앞,37.49695,127.05524,taxi,106
0,2호선 삼성역,37.508827,127.063203,subway,106
1,2호선 선릉역,37.504257,127.048174,subway,101
2,2호선 역삼역,37.500658,127.03643,subway,101
3,3호선 압구정역,37.526169,127.028502,subway,107
4,3호선 신사역,37.516438,127.020247,subway,107
5,3호선 양재역,37.48466,127.03513,subway,118
6,3호선 매봉역,37.487114,127.046907,subway,118
7,3호선 도곡역,37.491129,127.055694,subway,106
8,3호선 대치역,37.494601,127.063449,subway,106
9,3호선 학여울역,37.496757,127.070541,subway,106
10,3호선 대청역,37.493607,127.079526,subway,114
11,3호선 일원역,37.48389,127.08416,subway,114
12,3호선 수서역,37.487507,127.101324,subway,115
13,7호선 청담역,37.519097,127.051851,subway,105
14,7호선 강남구청역,37.517185,127.04122,subway,108
15,7호선 학동역,37.514262,127.031738,subway,108
16,7호선 논현역,37.511108,127.021385,subway,108
17,9호선 신논현역,37.504598,127.02506,subway,101
18,9호선 언주역,37.507287,127.033868,subway,101
19,9호선 선정릉역,37.51098,127.043593,subway,108
20,9호선 삼성중앙역,37.513011,127.053282,subway,105
21,9호선 봉은사역,37.514219,127.060245,subway,105
0,서광아파트102동,37.51714428,127.0425291,fire,105
1,,37.49926126,127.0475822,fire,101
2,서울비젼 사옥,37.51176278,127.0355841,fire,108
3,미진프라자,37.49799821,127.0286928,fire,101
4,대치MS빌딩,37.50077686,127.0522245,fire,106
5,한국가구,37.51172667,127.0241903,fire,108
6,영미빌딩,37.50252575,127.0574679,fire,106
7,금원빌딩,37.50290844,127.0496086,fire,101
8,,37.51026436,127.0365597,fire,108
9,,37.50275432,127.0581534,fire,106
10,강인빌딩,37.50090383,127.0416416,fire,101
11,,37.49972688,127.0513408,fire,106
12,신사상가,37.5322107,127.0278291,fire,110
13,이마트,37.4995446,127.0484223,fire,101
14,삼주빌딩,37.50054789,127.0598412,fire,106
15,,37.51863105,127.0379395,fire,108
16,청하빌딩,37.49998264,127.0601221,fire,106
17,리츠칼튼호텔,37.48903008,127.039642,fire,118
18,,37.51718023,127.0409031,fire,108
19,,37.49934437,127.03092,fire,101
20,대진빌딩,37.49933561,127.0622631,fire,106
21,,37.50907266,127.0588992,fire,105
22,동원빌딩,37.4987552,127.0299178,fire,101
23,대영빌딩,37.51693734,127.0221955,fire,108
24,한빛학원,37.49873943,127.0613382,fire,106
25,갤러리아,37.5282023,127.0390823,fire,107
26,한성자동차,37.52160336,127.0335072,fire,107
27,삼현빌딩,37.49946147,127.0635531,fire,106
28,,37.48434345,127.068763,fire,103
29,LG패션서관,37.52888297,127.0335,fire,107
30,상지서적,37.51970513,127.0564307,fire,105
31,,37.50391061,127.0611356,fire,106
32,청담빌딩,37.52739605,127.0411923,fire,104
33,ST.JOHN,37.52691241,127.0434135,fire,104
34,,37.52662827,127.0444732,fire,104
35,청담동JS빌딩,37.52369423,127.0421967,fire,104
36,소봉빌딩,37.52384113,127.0438338,fire,104
37,금구빌딩,37.52325291,127.0418291,fire,104
38,현대상가,37.52111952,127.0399594,fire,104
39,영동고등학교,37.5197063,127.0404611,fire,104
40,강남구노인복지회관,37.51802982,127.0411291,fire,104
41,,37.52291203,127.04786,fire,104
42,,37.52369655,127.0477332,fire,104
43,성인문구,37.51851302,127.0481351,fire,104
44,,37.52256536,127.0558432,fire,104
45,진흥아파트상가,37.51899963,127.0524421,fire,105
46,종로학원주차장,37.51633262,127.0517635,fire,105
47,연승빌딩,37.51485431,127.0525523,fire,105
48,JBK TOWER 빌딩,37.51475248,127.0632442,fire,105
49,동성빌딩,37.51342956,127.0533288,fire,105
50,,37.51189038,127.0503442,fire,105
51,,37.51421756,127.0595987,fire,105
52,,37.51140578,127.0539534,fire,105
53,BK타워,37.51035279,127.0545674,fire,105
54,제일빌딩,37.51163538,127.0434536,fire,105
55,호산프라자,37.51084671,127.0437813,fire,105
56,,37.47382822,127.0490119,fire,103
57,,37.47451918,127.050263,fire,103
58,,37.52654522,127.0274975,fire,107
59,,37.52784176,127.0303361,fire,107
60,,37.52780284,127.0334891,fire,107
61,화경빌딩,37.52603099,127.0335929,fire,107
62,YOHAN 빌딩,37.52878195,127.0358269,fire,107
63,김정일정신과병원,37.51045748,127.0436479,fire,108
64,삼성빌딩,37.52646767,127.0401708,fire,107
65,개포시영아파트,37.47825366,127.0560874,fire,103
66,하상장애인종합복지관,37.49215562,127.0749754,fire,114
67,,37.51114506,127.0475546,fire,105
68,성원빌딩,37.51248092,127.0533797,fire,105
69,삼성SDS 멀티캠퍼스,37.50135987,127.0398521,fire,101
70,한국은행강남본부,37.50028104,127.0373096,fire,101
71,,37.50950534,127.0237691,fire,108
72, 향원빌딩,37.5234324,127.0215731,fire,107
73,유성빌딩,37.52215627,127.0337708,fire,107
74,,37.51805791,127.0290008,fire,108
75,,37.52016854,127.0306649,fire,108
76,금양빌딩,37.52099995,127.0333662,fire,108
77,갤러,37.52847795,127.0460926,fire,104
78,성암빌딩,37.51663746,127.0356294,fire,108
79,국제빌딩,37.51465993,127.0328559,fire,108
80,영동정형외과,37.51589739,127.036719,fire,108
81,강남파라곤,37.51654745,127.0399863,fire,108
82,,37.51669823,127.0404757,fire,108
83,,37.51471506,127.0420331,fire,108
84,,37.51515917,127.0653601,fire,105
85,수정주택,37.51303747,127.0550733,fire,105
86, 동원빌딩,37.5067749,127.0546754,fire,105
87,,37.50671571,127.0496683,fire,105
88,,37.52088158,127.0489495,fire,104
89,삼화빌딩,37.51631602,127.0380939,fire,108
90,동암빌딩,37.51237986,127.0255122,fire,108
91, 상원빌딩,37.50612455,127.029789,fire,108
92,스타힐빌딩,37.50644375,127.0310223,fire,101
93,,37.5083637,127.0374328,fire,101
94,이안논현 빌라트,37.50934503,127.0406405,fire,108
95,대림빌딩,37.51461193,127.0202539,fire,108
96,,37.50490469,127.0256985,fire,108
97,다리빌딩,37.49242516,127.0406748,fire,101
98,역삼훼미리,37.49521624,127.0497217,fire,101
99,라이언타워,37.50628806,127.0544086,fire,105
100,더그레이스,37.50598389,127.0480932,fire,101
101,,37.49128251,127.0348118,fire,101
102,길근동빌딩,37.50707268,127.0330804,fire,108
103,,37.50203622,127.0472735,fire,101
104,,37.5032496,127.0359008,fire,101
105,대건빌딩,37.4986113,127.0294625,fire,101
106,선진자동차학원,37.49635966,127.0285964,fire,101
107,,37.49440682,127.0400588,fire,101
108,일성빌딩,37.49186531,127.0392261,fire,118
109,한솔빌딩,37.50755835,127.0355467,fire,101
110,CHA여성의학연구소,37.50691996,127.0334018,fire,101
111,동산빌딩호텔,37.50730585,127.0347249,fire,101
112,,37.51197724,127.0656505,fire,105
113,다이네즈앞,37.50791088,127.0367381,fire,101
114,차병원건너편,37.50612093,127.034253,fire,101
115,한국이동통신,37.50468055,127.0348943,fire,101
116,대웅빌딩,37.50599637,127.0412585,fire,101
117,주룩옵틱스,37.50522198,127.0417547,fire,101
118,미네르바,37.50712771,127.0465778,fire,101
119,파인빌딩,37.50255096,127.0359319,fire,101
120,,37.50168363,127.040988,fire,101
121,에도주가,37.4968128,127.0319398,fire,101
122,올림픽 카센타,37.4953891,127.032638,fire,101
123,SW발전센터빌딩,37.50218037,127.0559272,fire,106
124,에스케이허브젠,37.49332938,127.0310974,fire,101
125,동보빌딩,37.49395833,127.0330788,fire,101
126,로케트빌딩,37.49551989,127.0382444,fire,101
127, KT&G,37.49883862,127.0376891,fire,101
128,,37.49842757,127.0382194,fire,101
129,정안빌딩,37.49592354,127.0393838,fire,101
130,,37.52379594,127.0537145,fire,104
131,,37.49593291,127.0398866,fire,101
132,,37.50014962,127.0436778,fire,101
133,안산빌딩,37.49728779,127.0450528,fire,101
134,대우양재디오빌,37.48646804,127.0334073,fire,118
135,신호빌딩,37.49182792,127.0398352,fire,118
136,오복빌딩,37.49012148,127.0341664,fire,118
137,성환빌딩,37.49095363,127.0371837,fire,118
138,도곡동씨티파크,37.49257239,127.0423836,fire,118
139,호서빌딩,37.48845288,127.0323851,fire,118
140,,37.48517164,127.0381117,fire,118
141,,37.48275083,127.0426803,fire,Invalid Code
142,,37.48197066,127.0432529,fire,118
143,,37.48339799,127.044603,fire,118
144,,37.48472388,127.0460327,fire,118
145,길성일빌딩,37.48563722,127.045746,fire,118
146,길연립주택,37.48471563,127.0444885,fire,118
147,주택가,37.46904677,127.1007007,fire,111
148,,37.47174456,127.10704,fire,113
149,,37.49553733,127.0516103,fire,118
150,,37.4905512,127.0356182,fire,118
151,삼성빌딩,37.51043953,127.0626294,fire,105
152,주석빌딩,37.51193032,127.0494447,fire,105
153,우성2차아파트201동,37.50028894,127.0648627,fire,106
154,하나은행학동점,37.52297922,127.039561,fire,104
155,,37.52343404,127.0432506,fire,104
156,삼청빌딩,37.52197027,127.0563934,fire,104
157,한성빌딩,37.51907115,127.051071,fire,104
158,퍼스트 빌딩,37.51144695,127.0223974,fire,108
159,주식회사더블유상호저축은행,37.51515302,127.034534,fire,108
160,영신빌딩,37.51798199,127.0195254,fire,107
161,관광호텔,37.51863422,127.0253182,fire,107
162,,37.51442878,127.0356322,fire,108
163,한빛빌딩,37.49570433,127.0389162,fire,101
164,,37.51037192,127.0619315,fire,105
165,,37.5107619,127.0616855,fire,105
166,아셈타워,37.51156527,127.0612699,fire,105
167,아셈타워,37.51233723,127.0608651,fire,105
168,앞 코엑스 베스베이,37.51289217,127.0605599,fire,105
169,아셈타워,37.51366643,127.0601669,fire,105
170,,37.51383835,127.0594446,fire,105
171,코엑스인터컨티넨탈서울,37.51365033,127.0585265,fire,105
172,,37.51343728,127.0574434,fire,105
173,및 한국종합무역센타단지,37.51317181,127.0566533,fire,105
174,,37.51239884,127.0570459,fire,105
175,,37.51182741,127.0573822,fire,105
176,코엑스,37.51125109,127.0576609,fire,105
177,코엑스,37.51056814,127.0580009,fire,105
178,,37.50998618,127.0583177,fire,105
179,,37.49255249,127.0872176,fire,114
180,선화빌딩,37.48960947,127.0815398,fire,114
181,,37.49062082,127.0810352,fire,114
182,신영프라자,37.48548293,127.0836599,fire,114
183,잇푸도,37.52619984,127.0347427,fire,107
184,현대 선릉 GOLD TOWER,37.50327469,127.0508469,fire,106
185,,37.52656107,127.0456004,fire,104
186,미켈란147,37.51320366,127.0562076,fire,105
187,,37.51140709,127.0572609,fire,105
188,K-TOWER,37.50784061,127.0592071,fire,105
189,오월빌딩,37.51523437,127.060025,fire,105
190,쉐보레삼성대리점,37.51657018,127.0592525,fire,105
191,,37.49941744,127.0603344,fire,106
192,헬레스,37.51226569,127.0250842,fire,108
193,,37.50067382,127.0512827,fire,106
194,세민성형외과빌딩,37.52663686,127.0404673,fire,104
195,운기빌딩,37.49730102,127.0386932,fire,101
196,푸르덴셜타워,37.49150249,127.0308665,fire,101
197,주택앞,37.46785781,127.1012009,fire,111
198,인터컨티넨탈 서울,37.50876195,127.0623795,fire,105
199,코엑스인터컨티넨탈서울,37.50977312,127.0622449,fire,105
200,휴비스 사옥,37.50967132,127.0552941,fire,105
201,윤당빌딩,37.52545159,127.0335687,fire,107
202,,37.48472736,127.0417843,fire,Invalid Code
203,,37.48378298,127.0422003,fire,Invalid Code
204,아이오스페이스,37.48231378,127.043291,fire,118
205,우남빌딩,37.49834549,127.0312172,fire,101
206,제일빌딩,37.51011422,127.0640716,fire,105
207,제일빌딩,37.50996286,127.0641637,fire,105
208,성보역삼빌딩,37.49357368,127.0323804,fire,101
209,힐탑관광호텔,37.51136974,127.0317395,fire,108
210,,37.52426943,127.0396233,fire,104
211,,37.52372228,127.0428353,fire,104
212,,37.52388864,127.0443114,fire,104
213,,37.52709866,127.0426636,fire,104
214,서진빌딩,37.52205463,127.0396064,fire,104
215,,37.52480315,127.0471546,fire,104
216,건희빌딩,37.52170524,127.0485283,fire,104
217,,37.52581437,127.0465924,fire,104
218,,37.52405032,127.0455165,fire,104
219,,37.52344886,127.0406003,fire,104
220,도심공항터미널,37.5095306,127.0586361,fire,105
221,신한오피스텔,37.52413789,127.048953,fire,104
222,개포현대아파트,37.48440999,127.0600573,fire,103
223,동성철물,37.50361207,127.0602477,fire,106
224,함흥냉면,37.49695326,127.0558735,fire,106
225,역삼안전센터,37.49719292,127.0423982,fire,101
226,지앤비빌딩,37.50482711,127.064502,fire,106
227,성윤빌딩,37.50334056,127.0600003,fire,106
228,현대성우오토빌딩,37.5145077,127.0616652,fire,105
229,삼성빌딩,37.48367832,127.0593715,fire,103
230,서림빌딩,37.49326878,127.0402543,fire,101
231,,37.51766809,127.0291874,fire,108
232,리더스피부과건물,37.51994342,127.0299548,fire,108
233,윤정용건물,37.51894906,127.0404615,fire,108
234,진우빌딩다래전시장,37.51362733,127.0305977,fire,108
235,,37.52072042,127.0562961,fire,104
236,삼라빌딩,37.52578343,127.039919,fire,107
237,,37.52581553,127.0401955,fire,104
238,현대고등학교,37.52420476,127.0226182,fire,107
239,MJC빌딩,37.50694024,127.0403527,fire,101
240,역삼SK리더스뷰,37.50837199,127.0389671,fire,101
241,평프리젠아파트,37.50593437,127.0273014,fire,108
242,,37.52281508,127.0279486,fire,107
243,이가빌딩,37.52214132,127.0284463,fire,107
244,신사변전소,37.52485076,127.0334158,fire,107
245,,37.52045326,127.030197,fire,107
246,고려상가,37.52891502,127.0352647,fire,107
247,다우빌딩,37.52667715,127.0336651,fire,107
248,자생한방병원,37.52707054,127.033776,fire,107
249,다윈텍빌딩,37.486055,127.0444446,fire,118
250,,37.52616004,127.0332653,fire,107
251,,37.52009472,127.0187012,fire,107
252,산 54번지 임 도로명주소없음,37.48571835,127.0419405,fire,118
253,국민연금,37.51715641,127.0227268,fire,108
254,테라힐스아파트앞,37.49697108,127.0523645,fire,101
255,하나빌,37.5092995,127.0412841,fire,101
256,창일빌딩,37.50976886,127.0429401,fire,101
257,대림빌딩,37.50589555,127.0300865,fire,101
258,,37.49998829,127.0339569,fire,101
259,성지하이츠,37.5005091,127.0356089,fire,101
260,리츠칼튼호텔,37.50519436,127.0278369,fire,101
261,,37.49395143,127.0399634,fire,101
262,상형빌딩,37.49783149,127.0381548,fire,101
263,BMW모터스,37.50141406,127.0535747,fire,106
264,916빌딩,37.52166365,127.0353853,fire,108
265,B&S빌딩,37.52204092,127.0281081,fire,107
266,,37.51406833,127.0337941,fire,108
267,삼보주유소,37.5112826,127.0472885,fire,105
268,청림빌딩,37.51081675,127.0456836,fire,105
269,,37.50537555,127.0513851,fire,105
270,원방빌딩,37.50610503,127.0537325,fire,105
271,,37.50667314,127.0556333,fire,105
272,,37.50712784,127.0571332,fire,105
273,,37.49392075,127.0456718,fire,101
274,국악고등학교,37.47517771,127.0510469,fire,103
275,포이교육문화관,37.4752648,127.0528251,fire,103
276,운동시설 수영장),37.49213124,127.0801137,fire,114
277,개포한신아파트,37.49118386,127.080563,fire,114
278,,37.48985823,127.0811432,fire,114
279,,37.50512866,127.0264708,fire,108
280,주엠케이트랜드,37.50986391,127.0324494,fire,108
281,대운빌딩,37.50900754,127.0442203,fire,101
282,일반주택,37.50669716,127.0438747,fire,101
283,,37.49950431,127.0337427,fire,101
284,고려빌딩,37.49467518,127.0360134,fire,101
285,세일빌딩,37.49693947,127.0389025,fire,101
286,삼화빌딩,37.50832446,127.0669054,fire,106
287,건너편 인도,37.48289961,127.0868807,fire,115
288,대모초등학교,37.48139118,127.085624,fire,114
289,,37.51503542,127.0647337,fire,105
290,아이파크삼성동,37.51791666,127.058496,fire,105
291,,37.52802316,127.0503932,fire,104
292,삼부아파트,37.51696856,127.0658654,fire,105
293,광동한방병원,37.51433103,127.0621273,fire,105
294,대웅제약빌딩,37.51416691,127.0657926,fire,105
295,우남빌딩,37.51282221,127.0655938,fire,105
296,현대타워,37.50592326,127.0530722,fire,105
297,삼성금융프라자,37.50572752,127.0524697,fire,105
298,,37.51043982,127.0327352,fire,108
299,,37.50668451,127.0515731,fire,105
300,,37.50510882,127.0504471,fire,105
301,,37.50910675,127.0444476,fire,105
302,신창빌딩,37.52446024,127.0394512,fire,107
303,우리은행남역삼동지점,37.49355758,127.0411931,fire,101
304,휘닉스오피스텔,37.50399124,127.0467543,fire,101
305,,37.5235071,127.044849,fire,104
306,해성Ⅰ빌딩,37.5066072,127.0571547,fire,106
307,강남빌딩,37.52059171,127.030646,fire,107
308,편의점,37.51734643,127.0512208,fire,105
309,,37.51874435,127.0510615,fire,105
310,청담삼익상가,37.52049013,127.057097,fire,104
311,프뢰벨교육센터,37.515767,127.0352252,fire,108
312,,37.51220017,127.0504259,fire,105
313,삼성동센트럴아이파크,37.51495345,127.0520877,fire,105
314,강남수도사업소,37.48337375,127.0473874,fire,118
315,성지하이츠 2,37.5006424,127.0360956,fire,101
316,SS빌딩,37.51917227,127.0406588,fire,104
317,남강빌딩,37.52312451,127.0407977,fire,104
318,청담휴먼스타빌,37.52372279,127.0462548,fire,104
319,도원빌딩,37.50286169,127.0580084,fire,106
320,,37.47592623,127.046762,fire,103
321,,37.52392247,127.0396972,fire,104
322,지현빌딩,37.52638945,127.0454536,fire,104
323,페라가모전시장,37.52677891,127.0449724,fire,104
324,씨티은행청담동지점,37.52437614,127.0476588,fire,104
325,삼흥맨션,37.52100438,127.0244874,fire,107
326,,37.51837661,127.0314589,fire,108
327,인터컨티넨탈 서울,37.50899373,127.062618,fire,105
328,금석빌딩,37.50472814,127.0352415,fire,101
329,역카페앞,37.50235531,127.0363389,fire,101
330,강남파이낸스센터,37.5000394,127.0358602,fire,101
331,청은빌딩,37.49766615,127.0577769,fire,106
332,삼성디지털프라자,37.50052821,127.0670038,fire,106
333,쌍용대치아파트동,37.49695995,127.0699867,fire,106
334,캉캉빌딩,37.51712506,127.0294559,fire,108
335,대흥빌딩,37.5156979,127.030035,fire,108
336,구연빌딩,37.51407567,127.0308588,fire,108
337,삼예빌딩,37.51957277,127.0557521,fire,105
338,,37.51776119,127.0628888,fire,105
339,보암빌딩,37.52252665,127.0197436,fire,107
340,대신증권강남사옥,37.489483,127.03223,fire,118
341,테헤란로오피스텔,37.50294501,127.0476467,fire,101
342,성지하이츠빌딩,37.5035062,127.0454966,fire,101
343,씨네시티빌딩,37.52266377,127.0370579,fire,107
344,대한투자신탁,37.4945709,127.0629728,fire,106
345,한섬빌딩,37.51831194,127.0506879,fire,105
346,상제리제빌딩A동,37.50432535,127.0497118,fire,106
347,상제리제빌딩B동,37.50390501,127.0498891,fire,106
348,오토웨이타워,37.50663891,127.0638968,fire,106
349,여의도순복음교회제2성소,37.49276112,127.0338937,fire,101
350,동신빌딩,37.49219368,127.0412118,fire,118
351,보양빌딩,37.49994809,127.0604979,fire,106
352,호림아트센터 2빌딩,37.5224027,127.036147,fire,107
353,은산빌딩,37.5213762,127.039566,fire,108
354,도산대로 328,37.52252126,127.0380712,fire,108
355,싸이칸빌딩본관,37.52067036,127.0344598,fire,108
356,백영빌딩,37.52200332,127.0349653,fire,107
357,,37.51132566,127.0357939,fire,108
358,현대오피스텔,37.52385824,127.0554291,fire,104
359,여의도순복음교회제2성소,37.493374,127.0335918,fire,101
360,삼탄사옥,37.50723397,127.0633939,fire,106
361,앰배서더 강남  서울,37.50538658,127.0284634,fire,101
362,,37.51285835,127.0426996,fire,108
363,,37.50988273,127.0369456,fire,108
364,두산빌딩,37.51940401,127.0350165,fire,108
365,솔로몬역삼타워,37.49963533,127.0341587,fire,101
366,화평교회,37.50806773,127.0451312,fire,101
367,학동로 411,37.51790113,127.0449575,fire,104
368,금수빌딩,37.52333986,127.0329057,fire,107
369,화인빌딩,37.52310588,127.0207811,fire,107
370,,37.5153975,127.0298762,fire,108
371,광명빌딩,37.51744479,127.023396,fire,108
372,성현오피스텔,37.51313161,127.0207013,fire,108
373,태양빌딩,37.51760573,127.0288518,fire,108
374,신사빌딩,37.52014534,127.0279936,fire,107
375,,37.51302338,127.0275825,fire,108
376,,37.51128312,127.022759,fire,108
377,성바오로서원,37.51155106,127.0236132,fire,108
378,그린빌딩,37.51262573,127.0311492,fire,108
379,그린빌딩,37.51228786,127.0313088,fire,108
380,성일빌딩,37.51339746,127.0287499,fire,108
381,,37.51196546,127.0241098,fire,108
382,석상빌딩,37.50825757,127.0335476,fire,108
383,금은빌딩,37.50905408,127.0331708,fire,108
384,태성빌딩,37.50757226,127.0339165,fire,108
385,불노빌딩,37.51215184,127.0317054,fire,108
386,서울빌딩,37.51526388,127.0302623,fire,108
387,한맥빌딩,37.50601086,127.02405,fire,108
388,광명빌딩,37.50729522,127.0234205,fire,108
389,신성빌딩,37.5095349,127.022338,fire,108
390,세한빌딩,37.51695292,127.040176,fire,108
391,영동빌딩,37.51815022,127.0251534,fire,108
392,호산병원B동,37.52845137,127.0335717,fire,107
393,쉬즈애비뉴빌딩,37.52708516,127.0333854,fire,107
394,석정빌딩,37.52532553,127.0331481,fire,107
395,비손빌딩,37.52051334,127.034026,fire,108
396,관세청,37.51825454,127.035006,fire,108
397,,37.50972992,127.0376071,fire,108
398,논현로얄팰리스,37.51251595,127.035767,fire,108
399,주차장,37.52432385,127.0232873,fire,107
400,,37.52994812,127.0291076,fire,110
401,,37.52573418,127.0254465,fire,110
402,압구정 하이츠 파크,37.52364688,127.0338065,fire,107
403,삼성빌딩,37.51692301,127.0212584,fire,107
404,테헤란로 132,37.49932442,127.0333025,fire,101
405,건화빌딩,37.51106885,127.0465728,fire,105
406,SK뉴서울주유소,37.51764681,127.0356044,fire,108
407,경남상가,37.48330233,127.0527599,fire,103
408,,37.47471974,127.0519689,fire,103
409,,37.49159164,127.0877202,fire,114
410,,37.49701999,127.0526289,fire,106
411,,37.50102311,127.0633595,fire,106
412,진우빌딩,37.52616388,127.0267803,fire,107
413,LG패션,37.52789343,127.03387,fire,107
414,웅가프라자,37.52279618,127.0330024,fire,107
415,송담빌딩,37.49550871,127.0392325,fire,101
416,트라스빌딩,37.5199863,127.0342952,fire,108
417,,37.5148968,127.0653262,fire,105
418,INFINI청담빌딩,37.5238684,127.0473082,fire,104
419,재동건물,37.51974245,127.0495538,fire,104
420,정한빌딩,37.51867195,127.0492897,fire,104
421,삼성로 334,37.50127321,127.0597976,fire,106
422,하나은행,37.4989757,127.0611826,fire,106
423,대치순복음교회,37.49981381,127.0637718,fire,106
424,전시장,37.50087308,127.0670335,fire,106
425,GS자이갤러리,37.50268095,127.0661821,fire,106
426,광양불고기본가,37.50303141,127.0659,fire,106
427,,37.51099215,127.0319243,fire,108
428,,37.50999824,127.0580348,fire,105
429,,37.51277727,127.0536766,fire,105
430,삼성제일빌딩,37.50327222,127.0446731,fire,101
431,현익빌딩,37.49991504,127.0357423,fire,101
432,,37.52466823,127.0505331,fire,104
433,동화건물,37.51984987,127.0401356,fire,108
434,교하빌딩,37.49144373,127.0377864,fire,118
435,,37.49076485,127.035612,fire,118
436,,37.49009546,127.0334287,fire,101
437,개나리래미안,37.49902804,127.0468653,fire,101
438,에이블빌딩,37.49303442,127.0438981,fire,118
439,신촌면옥,37.50498781,127.057847,fire,106
440,,37.50116879,127.0528383,fire,106
441,,37.50202121,127.0554682,fire,106
442,하나은행,37.50314047,127.0584171,fire,106
443,현대아파트,37.49995384,127.0649735,fire,106
444,사조빌딩,37.49339463,127.0614671,fire,106
445,은성빌딩,37.51055372,127.0548122,fire,105
446,유림빌딩,37.50865263,127.0567524,fire,105
447,JS타워,37.50723322,127.0561799,fire,105
448,삼성동아이파크타워,37.5131465,127.0611265,fire,105
449,삼성동아이파크타워,37.5141695,127.0609627,fire,105
450,,37.51463064,127.0636916,fire,105
451,B동,37.51836075,127.0620168,fire,105
452,,37.51747422,127.065565,fire,105
453,,37.47447305,127.0497969,fire,103
454,,37.51045537,127.0266954,fire,108
455,자미온,37.5083563,127.038217,fire,101
456,금강빌딩,37.50900416,127.0403201,fire,101
457,대호빌딩,37.49903299,127.030814,fire,101
458,라움아트센터,37.50783791,127.0395015,fire,101
459,,37.50902671,127.0553013,fire,105
460,티아빌딩,37.50324788,127.05909,fire,106
461,길사당정문,37.48547702,127.0916284,fire,115
462,삼성아파트103동,37.48440338,127.0917905,fire,115
463,까치마을아파트1007동,37.48397122,127.0887916,fire,115
464,아파트앞,37.48526926,127.0889261,fire,115
465,수서현대벤쳐빌,37.4877074,127.102394,fire,115
466,삼익아파트403동,37.48945318,127.1016759,fire,115
467,수서한아름아파트106동,37.48995605,127.104687,fire,115
468,샘터마을아파트동,37.48485523,127.0810232,fire,114
469,샘터마을아파트동,37.48531405,127.0830837,fire,114
470,푸른마을아파트 104동,37.4827982,127.0800038,fire,114
471,푸른마을아파트 104동,37.48408342,127.0800078,fire,114
472,일원역,37.48329531,127.0840626,fire,114
473,중산고등학교,37.48501227,127.0808884,fire,114
474,수서6단지아파트605동,37.48774066,127.1042116,fire,115
475,제일꽃화원,37.48406236,127.0948892,fire,115
476,KT,37.48807987,127.098725,fire,115
477,KT,37.48844725,127.0985101,fire,115
478,KT,37.48726099,127.0999374,fire,115
479,한국지역난방공사,37.4910721,127.096103,fire,115
480,수서소방파출소,37.48461527,127.0929027,fire,115
481,서울로봇고등학교,37.48116055,127.0842624,fire,114
482,상록수아파트단지내상가동,37.48093751,127.0814726,fire,114
483,한상빌딩,37.50260217,127.057224,fire,106
484,대치빌딩,37.50483164,127.0511969,fire,106
485,신안빌딩,37.50705711,127.0583787,fire,106
486,코니빌딩,37.5055999,127.0645037,fire,106
487,폭스바겐,37.5049025,127.0641651,fire,106
488,케이티앤지 서울사무소,37.50607875,127.0651241,fire,106
489,케이티앤지 서울사무소,37.50682545,127.0647369,fire,106
490,,37.50566649,127.0663932,fire,106
491,보성빌딩,37.50545506,127.0657567,fire,106
492,,37.50497825,127.0656184,fire,106
493,새마을운동중앙회,37.50253556,127.0669337,fire,106
494,LEXUSD,37.50212764,127.0671652,fire,106
495,남서울가스충전소,37.49765304,127.0748776,fire,106
496,,37.50192489,127.0665316,fire,106
497,,37.50135481,127.0668902,fire,106
498,IVYTOWER,37.49929903,127.060865,fire,106
499,,37.5022057,127.0591391,fire,106
500,대치빌딩,37.50362697,127.0610099,fire,106
501,신사제빌딩,37.50412793,127.062457,fire,106
502,정우빌딩,37.50455169,127.0637189,fire,106
503,,37.50189112,127.0590633,fire,106
504,제일빌딩,37.49853554,127.0596331,fire,106
505,,37.49815283,127.0520894,fire,106
506,,37.49881107,127.0517801,fire,106
507,아이원 아파트,37.50164719,127.0547526,fire,106
508,,37.50202576,127.0559381,fire,106
509,정일빌딩,37.49848029,127.0604292,fire,106
510,,37.49750701,127.0613938,fire,106
511,태륭빌딩,37.49732566,127.0615445,fire,106
512,대치동천주교 성당,37.49786994,127.0603045,fire,106
513,국민은행개포동지점,37.48812676,127.0667565,fire,103
514,삼성로 14,37.48608551,127.0679221,fire,103
515,,37.4842835,127.0650518,fire,103
516,,37.48219155,127.0618508,fire,103
517,,37.48170742,127.0618278,fire,103
518,,37.4830222,127.0601654,fire,103
519,차아파트901동,37.48452079,127.0578176,fire,103
520,차아파트901동,37.48409175,127.0574882,fire,103
521,현대아파트동,37.4812641,127.0538711,fire,103
522,현대아파트동,37.48236854,127.0532797,fire,103
523,,37.48267983,127.0531245,fire,103
524,현대아파트상가,37.48278497,127.0526189,fire,103
525,현대아파트상가,37.48208378,127.0529924,fire,103
526,쌍용개포아파트,37.48108924,127.0535213,fire,103
527,,37.47747526,127.0623756,fire,103
528,차우성아파트7동,37.47643346,127.0579148,fire,103
529,개포시영아파트,37.47746993,127.0554197,fire,103
530,차우성아파트7동,37.4762793,127.0546967,fire,103
531,,37.47634304,127.0498236,fire,103
532,,37.47707333,127.0490551,fire,103
533,,37.47797491,127.0481425,fire,103
534,흥진빌딩,37.47872053,127.0484625,fire,103
535,,37.47686869,127.0482255,fire,103
536,유덕빌딩,37.4763055,127.0473698,fire,103
537,,37.47636083,127.0460706,fire,Invalid Code
538,보성빌딩,37.47795255,127.0448438,fire,Invalid Code
539,,37.4782171,127.045176,fire,103
540,영신빌딩,37.47850024,127.0467261,fire,103
541,쌍봉빌딩,37.47458182,127.0479277,fire,Invalid Code
542,영광빌딩,37.47545113,127.047029,fire,Invalid Code
543,,37.4722889,127.0502498,fire,Invalid Code
544,인터메츠사옥,37.47300922,127.049512,fire,Invalid Code
545,영창빌딩,37.47350156,127.0489923,fire,Invalid Code
546,,37.47484562,127.051233,fire,103
547,,37.47495232,127.0526279,fire,103
548,연립주택,37.47565705,127.0537129,fire,103
549,신사파크빌,37.52033488,127.0261589,fire,107
550,그랜드성형외과,37.51715897,127.0217958,fire,107
551,,37.53196752,127.0268363,fire,110
552,,37.53174855,127.0259426,fire,110
553,,37.50781589,127.0231734,fire,108
554,,37.50676569,127.0236826,fire,108
555,,37.51717367,127.0356296,fire,108
556,,37.51517225,127.0356665,fire,108
557,,37.51864825,127.0287436,fire,108
558,신한빌딩,37.51646936,127.0297611,fire,108
559,우정갈비,37.51474879,127.0304941,fire,108
560,송암빌딩,37.51659678,127.0352226,fire,108
561,학동파출소,37.51491004,127.0337361,fire,108
562,현대인텔렉스빌딩,37.51112041,127.0364194,fire,108
563,논현동동부센트레빌,37.51023079,127.0371553,fire,108
564,논현아테나니케,37.51474604,127.0269209,fire,108
565,,37.49057431,127.0348818,fire,101
566,정안빌딩,37.49608995,127.0322908,fire,101
567,일반주택,37.49483584,127.0329116,fire,101
568,송암 빌리지,37.49178336,127.0343661,fire,101
569,,37.4940844,127.0341353,fire,101
570,빅토리아빌딩,37.50411591,127.0472868,fire,101
571,강남파이낸스센터,37.50040467,127.0369215,fire,101
572,한성전기전자,37.49425131,127.0341488,fire,101
573,대우촌정육점,37.49458778,127.0332227,fire,101
574,재승빌딩,37.49641661,127.0408894,fire,101
575,한국문화콘텐츠진흥원,37.50322345,127.0356374,fire,101
576,단지 재건축단지내 상가,37.50196294,127.0404151,fire,101
577,한솔PCS,37.5017843,127.0398418,fire,101
578,일반주택(비소일체형 변경),37.5025099,127.0291767,fire,101
579,경원빌딩,37.49341789,127.0299767,fire,101
580,,37.49312675,127.0309148,fire,101
581,연립주택,37.49619503,127.0468433,fire,101
582,디오빌역삼,37.50125142,127.0431442,fire,101
583,스카이쏠라빌딩,37.48468959,127.0347115,fire,118
584,,37.48512443,127.0461138,fire,118
585,,37.48415242,127.045446,fire,118
586,,37.48817351,127.0413039,fire,118
587,경남아파트,37.4893561,127.0413693,fire,118
588,,37.48234753,127.0435717,fire,118
589,양재천로 175,37.48180797,127.0453772,fire,118
590,,37.48281708,127.0440747,fire,118
591,양재천로 191,37.48244659,127.0464368,fire,118
592,,37.49115469,127.0813784,fire,114
593,,37.49189029,127.0830895,fire,114
594,선릉로 636,37.51315929,127.0429041,fire,105
595,마레 앞,37.51047622,127.0445459,fire,105
596,고성화랑,37.51165256,127.0485143,fire,105
597,라클래시 103동 앞  청담역 7번출구,37.51840211,127.0502415,fire,105
598,삼성동 힐스테이트,37.5138325,127.052708,fire,105
599,,37.51282163,127.0524229,fire,105
600,봉은사,37.51373604,127.0571424,fire,105
601,수당빌딩,37.51334988,127.0548375,fire,105
602,,37.51415446,127.0529176,fire,105
603,MICHLA아파트,37.51478577,127.0604461,fire,105
604,남해빌딩,37.51132225,127.0658874,fire,105
605,백제예술대학 아트센터,37.51023952,127.0662441,fire,105
606,,37.51236305,127.0567302,fire,105
607,,37.50672647,127.0491395,fire,105
608,,37.50688391,127.0480383,fire,105
609,교회,37.50172121,127.0545207,fire,106
610,,37.50469551,127.0575967,fire,106
611,한보미도맨션동,37.49418254,127.0708506,fire,106
612,,37.52565342,127.0463135,fire,104
613,연세리버테라스,37.52892997,127.0464657,fire,104
614,연세리버빌,37.5287291,127.0474219,fire,104
615,,37.52834081,127.0491449,fire,104
616,도요타청담전시장,37.52457153,127.0535329,fire,104
617,도산대로 532,37.52444118,127.0517485,fire,104
618,SYC밀레니엄타워,37.52326132,127.0550891,fire,104
619,,37.52116116,127.0560818,fire,104
620,우암빌딩,37.51366953,127.0424229,fire,108
621,,37.51587294,127.0356385,fire,108
622,맥심제과건물,37.51980284,127.0348441,fire,108
623,,37.50945577,127.0374333,fire,108
624,제우빌딩,37.50493118,127.0244534,fire,108
625,청담2동지점,37.52313238,127.0386557,fire,107
626,소촌빌딩,37.5222601,127.0332381,fire,107
627,삼원가든,37.52440977,127.0329635,fire,107
628,강남구비즈니스센터,37.50959561,127.0423262,fire,101
629,주택,37.50502008,127.0315707,fire,101
630,,37.4917121,127.0410125,fire,118
631,우성빌딩,37.49461103,127.0352592,fire,101
632,,37.50027231,127.0436143,fire,101
633,,37.49939123,127.0440455,fire,101
634,,37.49779158,127.043256,fire,101
635,,37.49372071,127.0450133,fire,101
636,카렉스,37.49296332,127.0426951,fire,101
637,건일빌딩,37.49499825,127.0398023,fire,101
638,삼형빌딩,37.49511044,127.0394388,fire,101
639,상지리츠빌,37.4966156,127.0457426,fire,101
640,개나리래미안,37.49887956,127.0463223,fire,101
641,,37.48387384,127.0796335,fire,114
642,,37.48312394,127.0797356,fire,114
643,일원역,37.48450413,127.0837229,fire,114
644,평강교회,37.49279963,127.0852032,fire,114
645,앞인도,37.49157169,127.0806308,fire,114
646,주택,37.48269217,127.1030207,fire,112
647,주택 대문좌측,37.47138147,127.1098054,fire,113
648,,37.46993075,127.1045329,fire,113
649,중동고등학교,37.49267813,127.0801253,fire,114
650,중동고등학교,37.49362904,127.080107,fire,114
651,편의점,37.47164589,127.1064251,fire,113
652,한솔마을 305동,37.48208529,127.0799742,fire,114
653,한솔마을 307동,37.48156152,127.0800466,fire,114
654,교회,37.48094967,127.0767359,fire,114
655,청솔빌리지 상가동,37.48100535,127.0828698,fire,114
656,,37.49293448,127.0833495,fire,114
657,강남소방서,37.51017416,127.0664085,fire,105
658,진흥아파트,37.51943873,127.0525973,fire,104
659,도곡로 405,37.49693554,127.054824,fire,106
660,,37.4853322,127.0664844,fire,103
661,,37.4778399,127.0630318,fire,103
662,,37.47742059,127.0635536,fire,103
663,삼성동롯데아파트제동,37.51828126,127.0484527,fire,105
664,,37.51898769,127.0503507,fire,104
665,삼성오피스텔 앞,37.50657915,127.0525862,fire,105
666,도산대로 114,37.51644291,127.0213185,fire,108
667,,37.51287644,127.027847,fire,108
668,엘엔케이빌딩,37.50559876,127.0348016,fire,101
669,올림피아센타,37.49588889,127.0334916,fire,101
670,TOWER837,37.49140279,127.0309934,fire,101
671,세현빌딩,37.4950282,127.037167,fire,101
672,에스케이리더스뷰,37.48824886,127.0493415,fire,118
673,,37.4870163,127.03788,fire,118
674,,37.49361427,127.0830315,fire,114
675,양재대로 478,37.47750261,127.0634585,fire,103
676,신동아파밀리에 101동 방향,37.46504483,127.1006261,fire,111
677,세곡리엔파크2단지,37.46498637,127.1019172,fire,111
678,수서LPG충전소,37.48277847,127.1048106,fire,112
679,방죽주유소옆,37.47512433,127.1066123,fire,112
680,도선여객정비공장,37.47869933,127.0644824,fire,103
681,,37.52486317,127.0467425,fire,104
682,,37.51737626,127.0420322,fire,104
683,삼성동씨엘케이아파트,37.51749059,127.0443084,fire,105
684,예인빌딩,37.51493662,127.0422363,fire,105
685,,37.51280068,127.0565014,fire,105
686,,37.51079485,127.0575984,fire,105
687,,37.50964278,127.0630543,fire,105
688,,37.50403904,127.058361,fire,106
689,대치롯데마트,37.49947286,127.0626139,fire,106
690,평화빌딩,37.51189779,127.0247334,fire,108
691,논현빌딩,37.51120749,127.032145,fire,108
692,,37.51962149,127.028976,fire,108
693,동원빌딩,37.52357755,127.028457,fire,107
694,신창빌딩,37.52429811,127.0394137,fire,107
695,,37.52712692,127.0287149,fire,107
696,대연빌딩,37.50265935,127.025595,fire,101
697,만이빌딩,37.50077684,127.0265494,fire,101
698,동서빌딩,37.49819461,127.059552,fire,106
699,차병원,37.50683149,127.0342638,fire,101
700,아이앤지타워,37.5013486,127.0381966,fire,101
701,성원빌딩,37.50517044,127.0474358,fire,101
702,호산빌딩,37.49921006,127.0326596,fire,101
703,두꺼비빌딩,37.50296472,127.0448102,fire,101
704,남부순환로 2621,37.48501079,127.0370217,fire,118
705,성일자동차공업사,37.47859097,127.0464314,fire,103
706,지성빌딩,37.47697948,127.0454326,fire,Invalid Code
707,,37.47420392,127.0497587,fire,103
708,,37.5035439,127.0495656,fire,106
709,다봉타워,37.50517137,127.0522945,fire,106
710,오일프러스,37.48542854,127.0399486,fire,118
711,,37.51475202,127.0595517,fire,105
712,송파농협,37.46634971,127.1089102,fire,111
713,산성주유소,37.46665217,127.1192892,fire,111
714,삼일자동차운전학원,37.46775321,127.1211301,fire,111
715,로얄프라자,37.48828669,127.1022638,fire,115
716,,37.48654236,127.1037696,fire,115
717,동익아파트802동,37.48563387,127.0977401,fire,115
718,,37.52682881,127.0281233,fire,107
719,,37.52574585,127.0287237,fire,107
720,KT영동지점,37.50511434,127.0413341,fire,101
721,성모자애 장애인 복지관,37.46815974,127.1212024,fire,113
722,삼일자동차학원,37.46720833,127.1200021,fire,111
723,일원1동주민센터 측면,37.49162634,127.0880696,fire,114
724,사회복지법인능인선원,37.47175959,127.0520981,fire,103
725,개포동상지리츠빌,37.48717171,127.0615409,fire,103
726,,37.48036423,127.0547612,fire,103
727,서울산업통상진흥원,37.49705402,127.0728684,fire,106
728,,37.47766483,127.0574136,fire,103
729,,37.47856644,127.0565605,fire,103
730,삼성로 734,37.52097773,127.0491819,fire,104
731,,37.52127595,127.048781,fire,104
732,채널리저브,37.50786762,127.0558631,fire,105
733,지산빌딩,37.49735188,127.056795,fire,106
734,도곡렉슬아파트,37.49521282,127.0531883,fire,118
735,강남구 장애인 직업재활,37.4883453,127.1060987,fire,115
736,도곡삼호상가,37.4938479,127.0465944,fire,118
737,,37.47170167,127.0509499,fire,Invalid Code
738,강남스포츠문화센터,37.48888459,127.1056446,fire,115
739,한아름아파트 107동앞,37.48937609,127.1052997,fire,115
740,노라노,37.52338469,127.039985,fire,104
741,,37.52423335,127.0469791,fire,104
742,금원빌딩,37.52491058,127.0525092,fire,104
743,,37.50281532,127.0498928,fire,106
744,,37.5145356,127.0630569,fire,105
745,성지하이츠3,37.50167593,127.0362944,fire,101
746,,37.49959428,127.0326165,fire,101
747,비제이호텔,37.50657406,127.032228,fire,101
748,삼우빌딩,37.48993424,127.0335412,fire,118
749,,37.51399359,127.0305176,fire,108
750,Noblesse,37.51267837,127.0264724,fire,108
751,올리브영 출입문 앞,37.51776857,127.0231172,fire,107
752,동원빌딩,37.51663701,127.0205593,fire,107
753,,37.47831153,127.0475862,fire,103
754,,37.47735975,127.0485609,fire,103
755,,37.47661072,127.0493189,fire,103
756,구룡중학교,37.48658937,127.0566493,fire,103
757,논현역번출구,37.51120482,127.0216993,fire,108
758,경안빌딩,37.49527156,127.0396247,fire,101
759,,37.49779982,127.0384966,fire,101
760,유원중국음식점,37.49777016,127.0317089,fire,101
761,,37.49667156,127.0453128,fire,101
762,주택가,37.46826005,127.0992509,fire,111
763,아메리칸스탠다드빌딩,37.51523272,127.0658369,fire,105
764,해암빌딩,37.5033651,127.0657137,fire,106
765,대치현대아파트,37.50061993,127.0601441,fire,106
766,포스코트아파트101동,37.48754173,127.047859,fire,118
767,개포한신아파트상가,37.48729825,127.0501613,fire,118
768,우성아파트상가,37.48601216,127.050762,fire,118
769,,37.49247432,127.0419083,fire,118
770,옥산불가마,37.48606143,127.0411758,fire,118
771,가야빌딩,37.49475838,127.0836119,fire,114
772,,37.49070067,127.0807877,fire,114
773,,37.48954497,127.0812871,fire,114
774,,37.50260283,127.059086,fire,106
775,대흥빌딩,37.49401277,127.0618887,fire,106
776,,37.49961599,127.0677597,fire,106
777,,37.50552539,127.0415778,fire,101
778,서초세무서,37.49839371,127.0302748,fire,101
779,미레에셋타워,37.50928713,127.0656569,fire,106
780,세종고등학교,37.49013486,127.1014838,fire,115
781,푸른마을아파트 104동,37.48287592,127.0814383,fire,114
782,강남YMCA,37.51056007,127.0364072,fire,108
783,,37.51010454,127.0367572,fire,108
784,,37.49217345,127.0343801,fire,101
785,,37.4935547,127.0337211,fire,101
786,신정빌딩,37.49683182,127.0321344,fire,101
787,정글빌딩,37.50668672,127.0318048,fire,108
788,스카이모텔,37.50404953,127.0352355,fire,101
789,논현주유소,37.51856401,127.0283748,fire,108
790,,37.51471472,127.0302125,fire,108
791,성지빌딩,37.50917053,127.0328287,fire,108
792,,37.50988395,127.0328586,fire,108
793,논현동대우아이빌힐타운,37.51068674,127.0320636,fire,108
794,충현교회,37.50384755,127.0356353,fire,101
795,삼성동지웰,37.51147366,127.0486609,fire,105
796,,37.51058248,127.0325167,fire,108
797,사이룩스,37.48814545,127.1041871,fire,115
798,,37.50330903,127.0327339,fire,101
799,신화빌딩,37.4980879,127.0583773,fire,106
800,,37.51595614,127.0595691,fire,105
801,베스티안병원,37.49768552,127.0571679,fire,106
802,SO GOOD,37.4972022,127.0556741,fire,106
803,,37.49786886,127.0577007,fire,106
804,쌍용플래티넘,37.51247128,127.0520665,fire,105
805,,37.52136543,127.0566426,fire,104
806,,37.52537435,127.0465523,fire,104
807,청담동연경빌딩,37.52648737,127.0450345,fire,104
808,,37.51907394,127.0273657,fire,108
809,,37.51312544,127.0287169,fire,108
810,스페이스나인,37.51171381,127.0233662,fire,108
811,경원빌딩,37.51427875,127.0316763,fire,108
812,금성빌리지B동,37.49544681,127.0503027,fire,101
813,,37.49983824,127.0333672,fire,101
814,,37.4992779,127.0316263,fire,101
815,개포동주민센터,37.4895362,127.0691305,fire,103
816,앰배서더 강남  서울,37.50554866,127.029035,fire,101
817,길드림프라자,37.48878283,127.1047797,fire,115
818,코원시스템,37.50660908,127.0413459,fire,101
819,,37.4858805,127.0678993,fire,103
820,,37.48560105,127.0680376,fire,103
821,,37.48508045,127.0682944,fire,103
822,,37.47717364,127.0618354,fire,103
823,,37.47775663,127.0628678,fire,103
824,,37.47684833,127.0612914,fire,103
825,,37.49886564,127.0603307,fire,106
826,원일빌딩,37.50022394,127.0659179,fire,106
827,서림상가,37.49856448,127.0683289,fire,106
828,다다실업,37.49526031,127.0379594,fire,101
829,명호빌딩,37.49452353,127.0396084,fire,101
830,그린빌오피스텔,37.48874216,127.1039645,fire,115
831,자동차유리전문점,37.49378309,127.086598,fire,114
832,,37.48254011,127.0622832,fire,103
833,삼성빌딩,37.50973684,127.0656964,fire,105
834,세곡리엔파크3단지,37.46448051,127.1037457,fire,111
835,세곡리엔파크2단지,37.46326425,127.1033228,fire,111
836,국민건강보험공단 서울요양원 측면 도로,37.46199512,127.1043001,fire,111
837,국민건강보험공단 서울요양원 후면 이면도,37.46107112,127.1045928,fire,Invalid Code
838,,37.46046502,127.10292,fire,111
839,,37.46121362,127.1016593,fire,111
840,,37.46233605,127.1011577,fire,111
841,,37.46321045,127.1008818,fire,111
842,대왕초등학교,37.46417161,127.1019063,fire,111
843,김순성건물,37.50763484,127.0671416,fire,106
844,,37.5153208,127.0590859,fire,105
845,디자이너클럽,37.5247596,127.039824,fire,104
846,경복아파트비동,37.50918156,127.0399669,fire,108
847,삼정빌딩,37.50552423,127.0344853,fire,101
848,교회,37.48223416,127.0870506,fire,115
849,임페리얼팰리스호텔,37.51330679,127.0356373,fire,108
850,강남자동차매매장에이동,37.46956183,127.1182409,fire,113
851,일원본동주민센터,37.48338006,127.0863472,fire,114
852,충의빌딩,37.47831927,127.0458755,fire,103
853,비스빌라,37.52225925,127.0462207,fire,104
854,국민제빌딩,37.50305544,127.0664701,fire,106
855,번출구에서 10M지점 강남대로변,37.51555338,127.0198956,fire,108
856,강남대로 542,37.51037757,127.021947,fire,108
857,타워앞,37.49493409,127.0293204,fire,101
858,목원빌딩,37.48583855,127.0338456,fire,118
859,우리집동물병원,37.48635797,127.0451243,fire,118
860,주택앞 비소함,37.49289919,127.0381996,fire,101
861,,37.48899376,127.0667649,fire,103
862,연빌딩,37.51224718,127.0260082,fire,108
863,강남쉐르빌,37.49270972,127.0305085,fire,101
864,대왕중학교,37.48349863,127.0875598,fire,115
865,서울시립수서청소년수련원,37.48371386,127.0889794,fire,115
866,산성주유소,37.46644524,127.1189412,fire,111
867,,37.47941526,127.055614,fire,103
868,,37.47986156,127.0551902,fire,103
869,푸른솔아파트동,37.51780814,127.046212,fire,105
870,영광빌딩,37.49726389,127.0691053,fire,106
871,,37.48072223,127.0630203,fire,103
872,개나리래미안,37.49843055,127.045148,fire,101
873,로즈I타워,37.49532336,127.0459464,fire,101
874,은성빌딩,37.50476706,127.0264184,fire,101
875,보브빌딩,37.50466216,127.0260085,fire,101
876,24시고물상 앞,37.46572749,127.1148207,fire,111
877,벤츠서비스센터,37.46669706,127.1185179,fire,111
878,세곡사거리방향210미터,37.46597771,127.1166279,fire,111
879,동영빌딩,37.4926892,127.0409088,fire,101
880,율암빌딩,37.51291928,127.0281704,fire,108
881,압구정중학교,37.53015394,127.0337763,fire,110
882,,37.48624734,127.1071441,fire,115
883,신동아아파트 유치원,37.48720985,127.0996938,fire,115
884,수서6단지아파트605동,37.48627826,127.1053506,fire,115
885,현대썬앤빌,37.52089875,127.031446,fire,107
886,홍실쇼핑센터,37.52052279,127.0592963,fire,105
887,한양타운,37.52520819,127.0397476,fire,107
888,,37.52337561,127.0390642,fire,107
889,대치우성아파트동,37.50040895,127.0680894,fire,106
890,대치우성아파트동,37.50002334,127.068314,fire,106
891,도선여객정비공장,37.47902925,127.0650594,fire,103
892,구룡마을지구,37.47703917,127.0633288,fire,103
893,지구 입구에서 위쪽,37.47629832,127.0629817,fire,103
894,남부순환로 3165,37.49915903,127.0758677,fire,106
895,대치동주유소,37.49831768,127.0775106,fire,106
896,더그린관,37.47563319,127.1056643,fire,112
897,더샵 라르고 오피스텔,37.47509437,127.1049904,fire,112
898,강남힐스테이트에코,37.47475705,127.1054779,fire,112
899,푸르지오시티 1차,37.47478496,127.1040531,fire,112
900,푸르지오시티 2차,37.47428694,127.1046072,fire,112
901,강남유탑유블레스,37.47411313,127.1033154,fire,112
902,강남유탑유블레스,37.473701,127.1037364,fire,112
903,에이스타워,37.47282567,127.1033352,fire,112
904,강남유탑유블레스,37.47322753,127.1028842,fire,112
905,LH강남아이파크,37.47316459,127.1016897,fire,112
906,엘에이치강남단지,37.47285217,127.1004199,fire,112
907,엘에이치강남단지,37.47186338,127.1003242,fire,112
908,자곡초등학교건너편,37.47264559,127.0987753,fire,112
909,세곡드림프라자,37.47234619,127.0976334,fire,112
910,세곡드림프라자,37.47236332,127.0965155,fire,112
911,서울시니어스강남타워,37.47161334,127.0960111,fire,112
912,동길건너편 화단,37.47195001,127.0948165,fire,112
913,S플라자,37.47180491,127.0942909,fire,112
914,세곡중학교,37.47094995,127.0927324,fire,112
915,엘에이치강남3단지,37.47098417,127.0921868,fire,112
916,세곡중학교,37.47132907,127.0919413,fire,112
917,엘에이치강남브리즈힐,37.47175349,127.0908365,fire,112
918,엘에이치강남힐스테이트,37.47101983,127.0897615,fire,112
919,엘에이치강남힐스테이트,37.47016596,127.0897435,fire,112
920,엘에이치강남3단지,37.46967157,127.0910291,fire,112
921,엘에이치강남3단지,37.46968083,127.0917355,fire,112
922,세명초등학교,37.4688087,127.091717,fire,111
923,세곡푸르지오,37.46764733,127.0933477,fire,111
924,엘에이치푸르지오,37.46583991,127.0947028,fire,111
925,효성해링턴코트,37.46709317,127.0947492,fire,111
926,효성해링턴코트,37.46727812,127.0955256,fire,111
927,길은곡유치원,37.46712667,127.0966699,fire,111
928,,37.46702186,127.098091,fire,111
929,,37.46643038,127.0986189,fire,111
930,유진빌딩 후면,37.46619864,127.0995235,fire,111
931,강남드림하이오피스텔 후면 좌측,37.46605359,127.1005369,fire,111
932,,37.50419314,127.0560385,fire,106
933,쉼표소공원 앞,37.51399621,127.0640053,fire,105
934,공사중건물,37.51076547,127.0637287,fire,105
935,,37.48531405,127.0830836,fire,114
936,,37.46704698,127.1018161,fire,111
937,강남엘에이치1단지,37.47236332,127.0965155,fire,112
938,교통안전공단 강남검사소,37.51736546,127.0638645,fire,105
939,대진초등학교,37.51314649,127.0611264,fire,105
940,남부순환로 3179,37.51437862,127.065197,fire,105
941,옆 횡단보도,37.52052278,127.0592963,fire,105
942,강남 더샵 포레스트 201동 앞,37.51814702,127.0648336,fire,105
943,강남 더샵 포레스트,37.52239173,127.0197494,fire,107
944,강남데시앙포레,37.5240084,127.0266208,fire,107
945,밤고개로 231,37.47204497,127.1077569,fire,113
946,래미안포레,37.4722354,127.108113,fire,113
947,,37.47098643,127.1092784,fire,113
948,입구 좌측,37.47052235,127.1097186,fire,113
949,,37.47057606,127.1095534,fire,113
950,,37.5242894,127.0282002,fire,107
951,래미안포레,37.5218405,127.0306798,fire,107
952,,37.50512865,127.0264708,fire,108
953,,37.50180044,127.0355972,fire,101
954,,37.52183942,127.0495419,fire,104
955,,37.50972992,127.0376071,fire,108
956,,37.50490249,127.0641651,fire,106
957,,37.50189112,127.0590633,fire,106
958,강남한신휴플러스6단지,37.52160335,127.0335072,fire,107
959,KB증권대치지점,37.50546651,127.0530848,fire,106
960,구룡역,37.52536439,127.0507311,fire,104
961,게포6차우성아파트8동,37.50216357,127.0628196,fire,106
962,렉스원건물,37.51112435,127.0652456,fire,105
963,,37.51609092,127.0315798,fire,108
964,위법건축물,37.47692689,127.0502136,fire,103
965,개포우성7차아파트,37.51377559,127.0462496,fire,105
0,성모어린이집,37.51098,127.026898,children,108
1,논현초등학교,37.50817,127.026032,children,108
2,세리유치원,37.520723,127.025976,children,107
3,신사어린이집,37.52208,127.040066,children,104
4,청담어린이집,37.52208,127.040023,children,104
5,성요셉유치원,37.526323,127.048148,children,104
6,오르다어린이집,37.51276,127.050498,children,105
7,삼릉초등학교,37.513102,127.046914,children,105
8,도토리소풍넥슨어린이집,37.510367,127.051243,children,105
9,정애학교,37.514363,127.054425,children,105
10,한별어린이집,37.511759,127.055454,children,105
11,영동제일유치원,37.517579,127.053437,children,105
12,언북초등학교,37.519926,127.0451,children,104
13,선릉삼성어린이집,37.506634,127.051164,children,105
14,강남유치원,37.515448,127.039009,children,108
15,준현어린이집,37.522588,127.043338,children,104
16,학동초등학교,37.512535,127.039708,children,108
17,아란유치원,37.530019,127.028845,children,110
18,압구정아람어린이집,37.52931,127.035598,children,110
19,청수어린이집,37.525052,127.049284,children,104
20,신구초등학교,37.52336,127.024026,children,107
21,압구정초등학교,37.531671,127.031165,children,110
22,청담초등학교,37.527973,127.04527,children,104
23,압구정어린이집,37.523923,127.03222,children,107
24,성결유치원,37.511421,127.035354,children,108
25,바롬어린이집,37.525305,127.036309,children,107
26,튼튼영재어린이집,37.522646,127.05764,children,104
27,보미나어린이집,37.511241,127.028969,children,108
28,강남구청어린이집,37.517528,127.04747,children,105
29,연화어린이집,37.517216,127.037152,children,108
30,봉은초등학교,37.520135,127.060981,children,105
31,언북몬테소리어린이집,37.519322,127.046511,children,104
